[{"id": "1", "name": "Albolote", "lat": 37.228244012186536, "lon": -3.6536380648612976}, {"id": "2", "name": "Juncaril", "lat": 37.222587203291546, "lon": -3.645881320095062}, {"id": "3", "name": "Vicuña", "lat": 37.21410888934877, "lon": -3.637003004550934}, {"id": "4", "name": "Anfiteatro", "lat": 37.211024355176235, "lon": -3.6341625452041626}, {"id": "5", "name": "Maracena", "lat": 37.20714287504751, "lon": -3.6303994059562683}, {"id": "6", "name": "Cerrillo Maracena", "lat": 37.201496535149175, "lon": -3.6243832111358643}, {"id": "7", "name": "Jaén", "lat": 37.20414991888194, "lon": -3.617269992828369}, {"id": "8", "name": "Estación de autobuses", "lat": 37.199983936496274, "lon": -3.6131957173347473}, {"id": "9", "name": "Argentinita", "lat": 37.19586472888098, "lon": -3.6154836416244507}, {"id": "10", "name": "Luis Amador", "lat": 37.19198033240228, "lon": -3.6150410771369934}, {"id": "11", "name": "Villarejo", "lat": 37.18879232856426, "lon": -3.6147111654281616}, {"id": "12", "name": "Caleta", "lat": 37.18630080559792, "lon": -3.608810305595398}, {"id": "13", "name": "Estación de ferrocarriles", "lat": 37.18330826885078, "lon": -3.608365991439819}, {"id": "14", "name": "Universidad", "lat": 37.18071915394851, "lon": -3.608311414718628}, {"id": "15", "name": "Méndez Núñez", "lat": 37.17672284829848, "lon": -3.6098992824554443}, {"id": "16", "name": "Recogidas", "lat": 37.17005901935292, "lon": -3.605790138244629}, {"id": "17", "name": "Alcázar Genil", "lat": 37.16536962259957, "lon": -3.602963089942932}, {"id": "18", "name": "Hípica", "lat": 37.16073551172378, "lon": -3.5965418815612793}, {"id": "19", "name": "Andrés Segovia", "lat": 37.158153282407916, "lon": -3.5954368114471436}, {"id": "20", "name": "Palacio deportes", "lat": 37.15410875261233, "lon": -3.592725098133087}, {"id": "21", "name": "Nuevo Los Cármenes", "lat": 37.15105597268248, "lon": -3.596297800540924}, {"id": "22", "name": "Dílar", "lat": 37.14921740429762, "lon": -3.601064085960388}, {"id": "23", "name": "Parque tecnológico", "lat": 37.14905171716032, "lon": -3.6068308353424072}, {"id": "24", "name": "Sierra Nevada", "lat": 37.143981515253365, "lon": -3.613973557949066}, {"id": "25", "name": "Fernando de los Ríos", "lat": 37.1475861719014, "lon": -3.6207032203674316}, {"id": "26", "name": "Armilla", "lat": 37.14376557247942, "lon": -3.6271297931671143}]