[{"id": "2", "name": "Acceso A Albolote", "lat": 37.23315159931341, "lon": -3.641069233417511}, {"id": "3", "name": "Acceso A Láchar", "lat": 37.19454431289463, "lon": -3.838021159172058}, {"id": "4", "name": "Acceso A Maracena", "lat": 37.209430772193244, "lon": -3.6220818758010864}, {"id": "5", "name": "Acceso A Peñuelas", "lat": 37.1753294342706, "lon": -3.8586419820785522}, {"id": "6", "name": "Nigüelas", "lat": 36.97580465641243, "lon": -3.541497588157654}, {"id": "7", "name": "Ctra. De Córdoba V", "lat": 37.21634744736681, "lon": -3.6920177936553955}, {"id": "8", "name": "Acceso A Ambroz", "lat": 37.16581474306285, "lon": -3.6713439971208572}, {"id": "9", "name": "Acceso A Víznar", "lat": 37.230685886372584, "lon": -3.556797713049491}, {"id": "10", "name": "Acceso A Ctra. De Córdoba", "lat": 37.19889801618159, "lon": -3.647901687893123}, {"id": "11", "name": "Acceso A Fuente Vaqueros", "lat": 37.22632936862953, "lon": -3.7178481370210648}, {"id": "12", "name": "Acceso Haza Grande", "lat": 37.190670532101635, "lon": -3.592502474784851}, {"id": "13", "name": "Acceso Jun", "lat": 37.21721294836058, "lon": -3.5898486972018873}, {"id": "14", "name": "Ctra. De Albolote 1", "lat": 37.21299172152325, "lon": -3.636150062084198}, {"id": "15", "name": "Acceso A Otura", "lat": 37.08508702680421, "lon": -3.647444173693657}, {"id": "16", "name": "Ctra. De Albolote 1 V", "lat": 37.2133872601474, "lon": -3.6368404991690437}, {"id": "17", "name": "Acceso A Pinos Genil", "lat": 37.16227027179127, "lon": -3.5034316778182983}, {"id": "18", "name": "Pulianillas", "lat": 37.218193994132626, "lon": -3.60688179731369}, {"id": "19", "name": "Acceso A Ctra. De Santa Fe", "lat": 37.21857739522628, "lon": -3.6965399980545044}, {"id": "20", "name": "Cruce Urb. Abén Humeya", "lat": 37.219101124372415, "lon": -3.58672633767128}, {"id": "22", "name": "Acera Del Darro", "lat": 37.170979124356286, "lon": -3.598286658525467}, {"id": "23", "name": "Aeropuerto", "lat": 37.184875087563, "lon": -3.778626322746277}, {"id": "25", "name": "Alhambra", "lat": 37.199834384135414, "lon": -3.807060420513153}, {"id": "26", "name": "Alomartes 1", "lat": 37.26387591106918, "lon": -3.9102172404773228}, {"id": "27", "name": "Alomartes 2", "lat": 37.2614216634006, "lon": -3.912178874015808}, {"id": "28", "name": "Ancha", "lat": 37.16495335511228, "lon": -3.6620434373617172}, {"id": "29", "name": "Acceso A Nigüelas", "lat": 36.970402494050596, "lon": -3.5546833276748657}, {"id": "30", "name": "Andrés Segovia 1", "lat": 37.158178079082155, "lon": -3.5956385135978053}, {"id": "31", "name": "Barrio Alto", "lat": 37.16221469606521, "lon": -3.4435835480690002}, {"id": "34", "name": "Antonio Machado", "lat": 37.208271878713504, "lon": -3.642139434814453}, {"id": "38", "name": "Avda. De Madrid 2 V", "lat": 37.1910975, "lon": -3.6072358}, {"id": "39", "name": "Acceso Al Chaparral", "lat": 37.25853020363589, "lon": -3.657261729240418}, {"id": "40", "name": "Avda. Andaluces", "lat": 37.184364158279955, "lon": -3.6090101500131126}, {"id": "41", "name": "Avda. De Andalucía", "lat": 37.272696944307675, "lon": -3.623506799340248}, {"id": "42", "name": "Avda. De Andalucía V", "lat": 37.195704485453696, "lon": -3.7385038286447525}, {"id": "45", "name": "Avda. De Andalucía 1", "lat": 37.22402810136827, "lon": -3.6814193130521744}, {"id": "46", "name": "Avda. De Andalucía 1", "lat": 37.150504406860634, "lon": -3.6662256717681885}, {"id": "47", "name": "Avda. De Andalucía 1", "lat": 37.18994917072012, "lon": -3.615099549342631}, {"id": "48", "name": "Avda. De Andalucía 1", "lat": 37.25373912604599, "lon": -3.599577471613884}, {"id": "49", "name": "Avda. De Andalucía 1", "lat": 37.14684002635159, "lon": -3.576403856277466}, {"id": "50", "name": "Avda. De Andalucía 1", "lat": 37.222650511032995, "lon": -3.628508448600769}, {"id": "51", "name": "Avda. De Andalucía 2", "lat": 37.22300292025807, "lon": -3.68563212454319}, {"id": "52", "name": "Avda. De Andalucía 2", "lat": 37.153016884873004, "lon": -3.6685846745967865}, {"id": "54", "name": "Avda. De Andalucía 2", "lat": 37.19114381492978, "lon": -3.6178211867809296}, {"id": "55", "name": "Avda. De Andalucía 2 V", "lat": 37.25777333845775, "lon": -3.5953228175640106}, {"id": "56", "name": "Avda. De Andalucía 2", "lat": 37.1460618036661, "lon": -3.574078381061554}, {"id": "57", "name": "Avda. De Andalucía 2", "lat": 37.22564967449293, "lon": -3.626721426844597}, {"id": "58", "name": "Avda. De Andalucía 3", "lat": 37.222967145457275, "lon": -3.6877624690532684}, {"id": "59", "name": "Avda. De Andalucía 3", "lat": 37.15483398350728, "lon": -3.67067813873291}, {"id": "60", "name": "Avda. De Andalucía 3", "lat": 37.19327729008354, "lon": -3.623979538679123}, {"id": "61", "name": "Avda. De Andalucía 3", "lat": 37.14495806064444, "lon": -3.572327569127083}, {"id": "62", "name": "Avda. De Andalucía 3", "lat": 37.22654400761046, "lon": -3.624415397644043}, {"id": "63", "name": "Avda. De Andalucía 4", "lat": 37.159481816205584, "lon": -3.673515245318413}, {"id": "64", "name": "Avda. De Andalucía 4", "lat": 37.19466877056519, "lon": -3.6270325630903244}, {"id": "65", "name": "Avda. De Andalucía 4", "lat": 37.14240152013049, "lon": -3.569913371678231}, {"id": "66", "name": "Avda. De Andalucía 5", "lat": 37.195629705071234, "lon": -3.62907238304615}, {"id": "67", "name": "Avda. De Argentina 1", "lat": 37.21030553806435, "lon": -3.6371465027332306}, {"id": "68", "name": "Avda. De Argentina 2", "lat": 37.20898430658237, "lon": -3.6400821805000305}, {"id": "69", "name": "Ribera Del Beiro 1", "lat": 37.19009254611427, "lon": -3.610699251294136}, {"id": "70", "name": "Avda. De Blas De Otero 1", "lat": 37.205760703759935, "lon": -3.6284011602401733}, {"id": "71", "name": "Avda. De Blas De Otero 2", "lat": 37.20801766744098, "lon": -3.63122820854187}, {"id": "72", "name": "Avda. De Blas De Otero 3", "lat": 37.210382440073566, "lon": -3.6330588161945343}, {"id": "73", "name": "Avda. De Carmen Morcillo 1", "lat": 37.10637680364617, "lon": -3.6039387434720993}, {"id": "74", "name": "Avda .De Carmen Morcillo 2", "lat": 37.103169679997826, "lon": -3.6037255078554153}, {"id": "75", "name": "Avda. De Carmen Morcillo 3", "lat": 37.09963296951192, "lon": -3.603653758764267}, {"id": "76", "name": "Avda. De Cervantes 1", "lat": 37.165683825551675, "lon": -3.5895761847496033}, {"id": "77", "name": "Ilíberis", "lat": 37.22521878901997, "lon": -3.676694333553314}, {"id": "78", "name": "Avda. De Colinas Bermejas 1", "lat": 37.13321836953342, "lon": -3.5567238181829453}, {"id": "79", "name": "Avda. De Colinas Bermejas 2", "lat": 37.13106114054253, "lon": -3.5545223951339726}, {"id": "80", "name": "Avda. De Colinas Bermejas 3", "lat": 37.12957366516202, "lon": -3.552253246307373}, {"id": "81", "name": "Avda. De Colinas Bermejas 4", "lat": 37.128079887892845, "lon": -3.550713658332825}, {"id": "83", "name": "Ctra. De Córdoba 1", "lat": 37.24985443508108, "lon": -3.753905341045538}, {"id": "84", "name": "Ctro. De Estudios Lorquianos", "lat": 37.221643465899085, "lon": -3.784724324941635}, {"id": "85", "name": "Ctro. De Estudios Lorquianos V", "lat": 37.22155909989571, "lon": -3.78479540348053}, {"id": "86", "name": "Avda. De Andalucía 1", "lat": 37.02617500925422, "lon": -3.6312628090627186}, {"id": "87", "name": "Avda. De Andalucía 2", "lat": 37.02267689421227, "lon": -3.625743225225051}, {"id": "88", "name": "Avda. De Andalucía 3", "lat": 37.02387021806183, "lon": -3.621171668196439}, {"id": "89", "name": "Avda. De La Estación 1", "lat": 37.222915352058905, "lon": -3.689747303724289}, {"id": "90", "name": "Avda. De La Estación 2", "lat": 37.22208505097208, "lon": -3.692941814661026}, {"id": "91", "name": "Avda. De La Fuente 1", "lat": 37.23290120905236, "lon": -3.6301030218601227}, {"id": "92", "name": "Avda. De La Fuente 2", "lat": 37.23138870606148, "lon": -3.6293768137693405}, {"id": "93", "name": "Avda. De Los Almendros 1", "lat": 37.14758189601661, "lon": -3.5674265027046204}, {"id": "94", "name": "Avda. De Los Almendros 2", "lat": 37.14665402330611, "lon": -3.5657836496829987}, {"id": "96", "name": "Avda. De Los Almendros 4", "lat": 37.14370984055085, "lon": -3.5644157233718943}, {"id": "97", "name": "Avda. De Los Colorados 1", "lat": 37.15074822938647, "lon": -3.5681917369447547}, {"id": "98", "name": "Avda. De Los Colorados 2", "lat": 37.150294682524795, "lon": -3.5700702220447056}, {"id": "99", "name": "Avda. De Los Colorados 3", "lat": 37.14969778805863, "lon": -3.5725367814302444}, {"id": "100", "name": "Avda. De Los Colorados 4", "lat": 37.14986432893485, "lon": -3.5740014017119393}, {"id": "101", "name": "Avda. De Madrid 1", "lat": 37.188842542804736, "lon": -3.6050069332122803}, {"id": "103", "name": "Cruce De Colinas Bermejas", "lat": 37.13587415165938, "lon": -3.556435346595208}, {"id": "104", "name": "Cruce De Colinas Bermejas V", "lat": 37.13583673186624, "lon": -3.5564420521177453}, {"id": "105", "name": "Libertad 6", "lat": 37.133379814666704, "lon": -3.55813667178154}, {"id": "106", "name": "Avda. De Dílar 4", "lat": 37.15221146865809, "lon": -3.6010318994522095}, {"id": "107", "name": "Avda. De Dílar 3", "lat": 37.15602095288766, "lon": -3.6004994809627533}, {"id": "108", "name": "Avda. De Dílar 2", "lat": 37.15843, "lon": -3.59995}, {"id": "109", "name": "Avda. De La Diputación 1", "lat": 37.21760286912953, "lon": -3.690895289182663}, {"id": "110", "name": "Avda. De La Diputación 2", "lat": 37.21956, "lon": -3.68846}, {"id": "111", "name": "Avda. De La Diputación 3", "lat": 37.221657882864896, "lon": -3.6856019496917725}, {"id": "113", "name": "Avda. Del Conocimiento 2", "lat": 37.14658354301527, "lon": -3.6022710800170903}, {"id": "115", "name": "Avda. De Granada", "lat": 37.217999836509115, "lon": -3.5916581153787774}, {"id": "116", "name": "Granada 1", "lat": 37.22388767373779, "lon": -3.6267348378896713}, {"id": "117", "name": "Granada 2", "lat": 37.22528232742909, "lon": -3.6275844275951385}, {"id": "118", "name": "Granada 3", "lat": 37.2265845860556, "lon": -3.628387749195099}, {"id": "119", "name": "Avda. De La Hispanidad 1", "lat": 37.19162564157883, "lon": -3.7108388543128967}, {"id": "120", "name": "Avda. De La Hispanidad 2", "lat": 37.19047288489577, "lon": -3.7155233323574066}, {"id": "121", "name": "Avda. Contreras Ruiz 1", "lat": 37.232930038677004, "lon": -3.624005690217018}, {"id": "122", "name": "Avda. Contreras Ruiz 2", "lat": 37.23448361881298, "lon": -3.6213093996047974}, {"id": "123", "name": "Avda. De La Vega 1", "lat": 37.17429076844623, "lon": -3.685123175382614}, {"id": "124", "name": "Avda. De La Vega 2", "lat": 37.17466263809839, "lon": -3.6876726150512695}, {"id": "125", "name": "Avda. De La Vega 3", "lat": 37.175269593828844, "lon": -3.691754937171936}, {"id": "126", "name": "Ctra. De Láchar", "lat": 37.196022835395915, "lon": -3.8179555535316467}, {"id": "127", "name": "Ctra. De Láchar V", "lat": 37.19604847425902, "lon": -3.8186314702033997}, {"id": "128", "name": "Libertad Alto", "lat": 37.12424, "lon": -3.5536}, {"id": "129", "name": "Albercones", "lat": 37.23804327873195, "lon": -3.5602176636621152}, {"id": "131", "name": "Ctra. De Motril 13", "lat": 36.98741875684996, "lon": -3.559531420469284}, {"id": "132", "name": "Cno. Ancho", "lat": 37.17498802254261, "lon": -3.691917210817337}, {"id": "133", "name": "Avda. De Maracena", "lat": 37.20352396800272, "lon": -3.626563847064972}, {"id": "135", "name": "Avda. Palos De La Frontera 2 V", "lat": 37.19237080655142, "lon": -3.7173301884286047}, {"id": "137", "name": "San Jerónimo 2", "lat": 37.210328501866975, "lon": -3.5899141430854797}, {"id": "138", "name": "San Jerónimo 3", "lat": 37.2117223381962, "lon": -3.588605895638466}, {"id": "139", "name": "Avda. De Pulianas 1 V", "lat": 37.18940397847486, "lon": -3.6037717759609222}, {"id": "140", "name": "Avda. Pulianas 1", "lat": 37.231061962990275, "lon": -3.6227349936962128}, {"id": "142", "name": "Avda. Pulianas 2", "lat": 37.23123708036791, "lon": -3.6258959770202637}, {"id": "143", "name": "Avda. De Pulianas 3", "lat": 37.19667876023905, "lon": -3.6041727662086487}, {"id": "144", "name": "Avda. De Pulianas 4", "lat": 37.20179136017032, "lon": -3.6056506633758545}, {"id": "145", "name": "Avda. De Pulianas 5", "lat": 37.2051668109492, "lon": -3.607812523841858}, {"id": "146", "name": "Avda. De Pulianas 6", "lat": 37.207046743396845, "lon": -3.6090946197509766}, {"id": "147", "name": "Avda. De Pulianas 7", "lat": 37.21018698064658, "lon": -3.6098510026931763}, {"id": "148", "name": "Avda. De Reina Sofía 1", "lat": 37.231328910049726, "lon": -3.634420707821846}, {"id": "149", "name": "Avda. De Reina Sofía 2", "lat": 37.23427914600601, "lon": -3.6312228441238403}, {"id": "150", "name": "Avda. Reyes Católicos 1", "lat": 37.22824411165742, "lon": -3.6540667029067753}, {"id": "151", "name": "Avda. Reyes Católicos 2", "lat": 37.22796, "lon": -3.65633}, {"id": "152", "name": "Avda. De San Antón 1", "lat": 37.16433776664144, "lon": -3.667175844311714}, {"id": "153", "name": "Avda. De San Antón 2", "lat": 37.16415715032279, "lon": -3.6637157946825027}, {"id": "154", "name": "Avda. Reyes Católicos 3", "lat": 37.22762573606228, "lon": -3.659539595246315}, {"id": "155", "name": "Avda. Sol 1", "lat": 37.12178108338765, "lon": -3.5797539353370667}, {"id": "156", "name": "Avda. Sol 2", "lat": 37.119674668546274, "lon": -3.576077170001235}, {"id": "157", "name": "Avda. Suspiro Del Moro", "lat": 37.08940697383829, "lon": -3.6371558904647827}, {"id": "158", "name": "Avda. Vista Alegre 1", "lat": 37.234424359127054, "lon": -3.619670569896698}, {"id": "160", "name": "Ayuntamiento Beas De Granada V", "lat": 37.21852070564178, "lon": -3.4813584107622546}, {"id": "161", "name": "Ayuntamiento Chauchina", "lat": 37.20182951394726, "lon": -3.772806183627381}, {"id": "162", "name": "Ayuntamiento Dílar", "lat": 37.07497, "lon": -3.6016}, {"id": "163", "name": "Ayuntamiento Fuente Vaqueros V", "lat": 37.219287589875655, "lon": -3.783227652311325}, {"id": "164", "name": "Ayuntamiento Güevéjar", "lat": 37.2569275853868, "lon": -3.5979707448796034}, {"id": "166", "name": "Ayuntamiento Pulianas V", "lat": 37.22253304092541, "lon": -3.6079439520835876}, {"id": "167", "name": "Selva Florida", "lat": 37.1721749235243, "lon": -3.6654290556907654}, {"id": "170", "name": "Ayuntamiento Santa Fe V", "lat": 37.1896801541472, "lon": -3.718569651246071}, {"id": "172", "name": "Barrio Nuevo", "lat": 37.25081, "lon": -3.75181}, {"id": "173", "name": "Base Aérea", "lat": 37.1367353675896, "lon": -3.6290019750595097}, {"id": "178", "name": "Avda. Vista Alegre 2", "lat": 37.23534634914541, "lon": -3.615684136748314}, {"id": "179", "name": "Bco. Malacabí 1", "lat": 37.13069, "lon": -3.56447}, {"id": "183", "name": "Bda. García Lorca", "lat": 37.225134427015895, "lon": -3.7865522503852844}, {"id": "184", "name": "Biblioteca", "lat": 37.121083231640725, "lon": -3.582778662475903}, {"id": "185", "name": "Biblioteca", "lat": 37.229839867285, "lon": -3.627508655190468}, {"id": "186", "name": "Biblioteca V", "lat": 37.25058, "lon": -3.7483}, {"id": "187", "name": "Bobadilla", "lat": 37.19177354330766, "lon": -3.6438598786919556}, {"id": "188", "name": "Bola De Oro", "lat": 37.16129, "lon": -3.58649}, {"id": "189", "name": "Brácana", "lat": 37.228977607851355, "lon": -3.945702463388443}, {"id": "190", "name": "Buenavista", "lat": 37.23755064436863, "lon": -3.732551336288452}, {"id": "191", "name": "Buenavista", "lat": 37.19034062124645, "lon": -3.7214158774077077}, {"id": "194", "name": "Calderón", "lat": 37.19075813772471, "lon": -3.7187916040420532}, {"id": "195", "name": "Real", "lat": 37.232040052403455, "lon": -3.6576761305332184}, {"id": "196", "name": "Ayuntamiento Purchil", "lat": 37.17191417893835, "lon": -3.6673521995544434}, {"id": "197", "name": "Laurel De La  Reina 2 V", "lat": 37.12481, "lon": -3.58565}, {"id": "198", "name": "Camping", "lat": 37.268488322608974, "lon": -3.680843710899353}, {"id": "199", "name": "Camping", "lat": 37.191588550322415, "lon": -3.652607715286649}, {"id": "201", "name": "Cañada Real", "lat": 37.13131, "lon": -3.67526}, {"id": "202", "name": "Capitán Moreno", "lat": 37.183413014827934, "lon": -3.60058075190409}, {"id": "205", "name": "Carrera De La Virgen 1", "lat": 37.1937606633338, "lon": -3.7744870201552203}, {"id": "207", "name": "Carrera De La Virgen 2", "lat": 37.19726737849564, "lon": -3.7729521095752716}, {"id": "209", "name": "Carrera De La Virgen 3", "lat": 37.20003560840104, "lon": -3.7723743450848133}, {"id": "210", "name": "Acceso A Chauchina", "lat": 37.19073, "lon": -3.77543}, {"id": "215", "name": "Casa Real", "lat": 37.23228884386537, "lon": -3.7929627299308777}, {"id": "216", "name": "Casanueva 1", "lat": 37.257921174837506, "lon": -3.78775455057621}, {"id": "217", "name": "Casanueva 2", "lat": 37.257474462579985, "lon": -3.7904803454875946}, {"id": "219", "name": "Castillo De Tajarja", "lat": 37.117664563322144, "lon": -3.8790173828601837}, {"id": "221", "name": "Cementerio", "lat": 37.23368, "lon": -3.65883}, {"id": "222", "name": "Laúd", "lat": 37.11948, "lon": -3.54436}, {"id": "223", "name": "Cementerio", "lat": 37.2214952379689, "lon": -3.5919189602054757}, {"id": "224", "name": "Cenes De La Vega 1", "lat": 37.15847, "lon": -3.53287}, {"id": "225", "name": "Cenes De La Vega 2", "lat": 37.1586, "lon": -3.53647}, {"id": "226", "name": "Cenes De La Vega 3", "lat": 37.159326839612326, "lon": -3.5388167202472687}, {"id": "227", "name": "Cenes De La Vega 4", "lat": 37.160140730380895, "lon": -3.541262224316597}, {"id": "228", "name": "Cenes De La Vega 5", "lat": 37.16110851686282, "lon": -3.544761836528778}, {"id": "229", "name": "Cenes De La Vega 6", "lat": 37.16169, "lon": -3.54636}, {"id": "230", "name": "Centeno", "lat": 37.11372481353423, "lon": -3.587052896618843}, {"id": "231", "name": "Central Eléctrica", "lat": 37.16423, "lon": -3.49451}, {"id": "232", "name": "Centro De Salud", "lat": 37.11489, "lon": -3.58211}, {"id": "233", "name": "Centro Penitenciario De Albolote", "lat": 37.32872489894972, "lon": -3.675834685564041}, {"id": "234", "name": "Cerro Cauro", "lat": 37.40815900573964, "lon": -3.735702858398554}, {"id": "239", "name": "Chimeneas 1", "lat": 37.13406226403371, "lon": -3.822150796668211}, {"id": "240", "name": "Chimeneas 2", "lat": 37.13219067230838, "lon": -3.8220549076959287}, {"id": "241", "name": "Chimeneas 3", "lat": 37.12900346049504, "lon": -3.8220072984859144}, {"id": "245", "name": "Caleta", "lat": 37.16427, "lon": -3.69133}, {"id": "246", "name": "Cno. Bajo De Huétor", "lat": 37.15663179929529, "lon": -3.5853161662817}, {"id": "249", "name": "Cno. De Churriana", "lat": 37.147127261195315, "lon": -3.627882689249873}, {"id": "250", "name": "San Miguel", "lat": 37.14662943666241, "lon": -3.62364761531353}, {"id": "255", "name": "Cno. De Gójar 3", "lat": 37.111392949752194, "lon": -3.59998543562142}, {"id": "256", "name": "Cno. De Gójar 4", "lat": 37.11014, "lon": -3.6024}, {"id": "257", "name": "Cno. De Huétor", "lat": 37.16266250700385, "lon": -3.5871172696352005}, {"id": "259", "name": "Cno. De Las Galeras 1", "lat": 37.160632908268184, "lon": -3.689562901854515}, {"id": "262", "name": "Ancha 1", "lat": 37.167588786570626, "lon": -3.662707954645157}, {"id": "265", "name": "Cno. Del Purchilejo 2", "lat": 37.173371772374885, "lon": -3.674905300140381}, {"id": "270", "name": "Cno. Forestal 2", "lat": 37.116003027723956, "lon": -3.5906796455628864}, {"id": "274", "name": "Cno. Real De Los Neveros 2", "lat": 37.15913124801006, "lon": -3.581341803073883}, {"id": "276", "name": "Colegio Fuente De La Reina", "lat": 37.19576, "lon": -3.74231}, {"id": "277", "name": "Colegio Las Alhomas", "lat": 37.256604513543614, "lon": -3.7955939769744873}, {"id": "279", "name": "Colomera 1", "lat": 37.36797, "lon": -3.71286}, {"id": "280", "name": "Colomera 2", "lat": 37.373173385952924, "lon": -3.711272031068802}, {"id": "281", "name": "Cno. Viejo De Santa Fe V", "lat": 37.161595878970076, "lon": -3.6907383799552917}, {"id": "287", "name": "Avda. De Los Almendros", "lat": 37.14757655116032, "lon": -3.5704346001148224}, {"id": "289", "name": "Cortijo Labella", "lat": 37.12284292638502, "lon": -3.5461311042308807}, {"id": "290", "name": "Acceso A Padul", "lat": 37.0201, "lon": -3.60632}, {"id": "292", "name": "Cruce Pol. Ind. Asegra", "lat": 37.22063, "lon": -3.62887}, {"id": "296", "name": "Cruces Del Santo Cristo", "lat": 37.22243799679534, "lon": -3.6098121106624603}, {"id": "297", "name": "La Cruz De Granada", "lat": 37.248491621693745, "lon": -3.7444281578063965}, {"id": "298", "name": "Plaza De Las Américas 2", "lat": 37.16246, "lon": -3.60282}, {"id": "300", "name": "Ctra. Antigua De Motril 1", "lat": 37.02374, "lon": -3.61774}, {"id": "301", "name": "Ctra. Antigua De Motril 2", "lat": 37.02177, "lon": -3.61213}, {"id": "302", "name": "Ctra. Antigua De Motril 3", "lat": 37.01808, "lon": -3.59962}, {"id": "303", "name": "Ctra. Antigua De Motril 4", "lat": 37.01355, "lon": -3.59174}, {"id": "304", "name": "Ctra. De Albolote 2", "lat": 37.217247123944595, "lon": -3.6409834027290344}, {"id": "305", "name": "Ctra. De Alfacar 1", "lat": 37.19610295681421, "lon": -3.601087689448832}, {"id": "306", "name": "Ctra. De Alfacar 2", "lat": 37.197979055650954, "lon": -3.600250840154331}, {"id": "307", "name": "Ctra. De Alfacar 3", "lat": 37.19959851817385, "lon": -3.599647879600525}, {"id": "308", "name": "Ctra. De Alfacar 4", "lat": 37.20311229031782, "lon": -3.5975989401504194}, {"id": "311", "name": "Ctra. De Alhama 2", "lat": 37.142403622164906, "lon": -3.634151816368103}, {"id": "316", "name": "Ctra. De Armilla 2", "lat": 37.121923620801326, "lon": -3.612410410711478}, {"id": "317", "name": "Ctra. De Armilla 1", "lat": 37.12267758830619, "lon": -3.6106261878502437}, {"id": "318", "name": "Ctra. De Armilla 3", "lat": 37.12204, "lon": -3.61527}, {"id": "319", "name": "Ctra. De Armilla 4", "lat": 37.12226266160547, "lon": -3.6176233012467947}, {"id": "320", "name": "Ctra. De Cijuela 1", "lat": 37.20195617904287, "lon": -3.7756169864505864}, {"id": "321", "name": "Ctra. De Cogollos", "lat": 37.25962, "lon": -3.59448}, {"id": "322", "name": "Acceso A Cijuela", "lat": 37.1954, "lon": -3.80352}, {"id": "323", "name": "Ctra. De Dílar 1", "lat": 37.09315, "lon": -3.60561}, {"id": "324", "name": "Ctra. De Dílar 2", "lat": 37.09094, "lon": -3.60723}, {"id": "325", "name": "Ctra. De Dílar 3", "lat": 37.08238, "lon": -3.60409}, {"id": "326", "name": "Ctra. De Dílar 4", "lat": 37.0761, "lon": -3.60501}, {"id": "327", "name": "Ctra. De Dílar 5", "lat": 37.08933, "lon": -3.62776}, {"id": "328", "name": "Ctra. De Dúdar 1", "lat": 37.17763111814641, "lon": -3.50158229470253}, {"id": "329", "name": "Ctra. De Gójar", "lat": 37.116234770119206, "lon": -3.6032617539331113}, {"id": "330", "name": "Ctra. De Granada", "lat": 37.23494114472999, "lon": -3.5659381449386274}, {"id": "331", "name": "Ctra. De Granada 1", "lat": 37.151464513623495, "lon": -3.6143713295950874}, {"id": "332", "name": "Ctra. De Granada 1", "lat": 37.26139907439845, "lon": -3.576008265335531}, {"id": "334", "name": "Ctra. De Granada 2 V", "lat": 37.25886, "lon": -3.57862}, {"id": "336", "name": "Ctra. De Güéjar Sierra 1", "lat": 37.16402355809344, "lon": -3.503621444106102}, {"id": "337", "name": "Ctra. De Güéjar Sierra 2", "lat": 37.164187074949794, "lon": -3.5002847760915756}, {"id": "338", "name": "Ctra. De Güéjar Sierra 3", "lat": 37.16113951147638, "lon": -3.460741639137268}, {"id": "339", "name": "Ctra. De Güéjar Sierra 4", "lat": 37.16084, "lon": -3.45409}, {"id": "340", "name": "Ctra. De Güéjar Sierra 5", "lat": 37.15884053168801, "lon": -3.4429652988910675}, {"id": "341", "name": "Ctra. De Huétor 1", "lat": 37.152711714907866, "lon": -3.5818802565336227}, {"id": "342", "name": "Ctra. De Huétor 2", "lat": 37.15086142860768, "lon": -3.5797331482172012}, {"id": "343", "name": "Ctra. De Huétor 3", "lat": 37.148576567195335, "lon": -3.5778723657131195}, {"id": "344", "name": "Avda. De Juan Pablo Ii 1", "lat": 37.19388943782329, "lon": -3.608314096927643}, {"id": "346", "name": "Ctra. De La Sierra 1", "lat": 37.16225744662735, "lon": -3.5493752360343933}, {"id": "347", "name": "Ctra. De La Sierra 10", "lat": 37.16530870554949, "lon": -3.5813498497009277}, {"id": "348", "name": "Ctra. De La Sierra 11", "lat": 37.16581848355986, "lon": -3.5831522941589355}, {"id": "349", "name": "Ctra. De La Sierra 12", "lat": 37.16635711319337, "lon": -3.585185408592224}, {"id": "350", "name": "Ctra. De La Sierra 13", "lat": 37.16741298713008, "lon": -3.5884442925453186}, {"id": "351", "name": "Ctra. De La Sierra 2", "lat": 37.16196781109579, "lon": -3.556687608361244}, {"id": "352", "name": "Ctra. De La Sierra 3", "lat": 37.16255937178414, "lon": -3.5590962320566177}, {"id": "353", "name": "Ctra. De La Sierra 4", "lat": 37.162968171180694, "lon": -3.5632140934467316}, {"id": "354", "name": "Ctra. De La Sierra 5", "lat": 37.16302695261148, "lon": -3.5669946670532227}, {"id": "357", "name": "Ctra. De La Sierra 7", "lat": 37.163638276781555, "lon": -3.5743526369333267}, {"id": "358", "name": "Ctra. De La Sierra 9", "lat": 37.164515710698986, "lon": -3.5786421597003937}, {"id": "359", "name": "Ctra. De La Zubia 1", "lat": 37.14837186162209, "lon": -3.5915910601943324}, {"id": "361", "name": "Ctra. De La Zubia 2", "lat": 37.14573704298178, "lon": -3.591392442608594}, {"id": "362", "name": "Ctra. De La Zubia 3", "lat": 37.14143762749579, "lon": -3.590635657310486}, {"id": "363", "name": "Ctra. De La Zubia 4", "lat": 37.13884, "lon": -3.58955}, {"id": "364", "name": "Ctra. De La Zubia 5", "lat": 37.13684994641281, "lon": -3.587919116012017}, {"id": "365", "name": "Ctra. De Moclín 1", "lat": 37.32195355879326, "lon": -3.78535196185112}, {"id": "366", "name": "Ctra. De Moclín 2", "lat": 37.32117650170435, "lon": -3.7869964242145215}, {"id": "367", "name": "Ctra. De Monachil 1", "lat": 37.138069057428275, "lon": -3.5672803223133087}, {"id": "368", "name": "Ctra. De Monachil 2", "lat": 37.13655198127916, "lon": -3.563913479447365}, {"id": "369", "name": "Ctra. De Monachil 3", "lat": 37.13624, "lon": -3.55964}, {"id": "371", "name": "Ctra. De Monachil 4", "lat": 37.137088681181346, "lon": -3.5588809847831726}, {"id": "372", "name": "Ctra. De Monachil 5", "lat": 37.13658, "lon": -3.55759}, {"id": "375", "name": "Ctra. De Monachil 6", "lat": 37.135657727062544, "lon": -3.5561263561248784}, {"id": "376", "name": "Ctra. De Monachil 7", "lat": 37.13357066161507, "lon": -3.5483720898628235}, {"id": "377", "name": "Ctra. De Monachil 7 V", "lat": 37.13393, "lon": -3.55064}, {"id": "378", "name": "Ctra. De Motril 1", "lat": 37.127788373499826, "lon": -3.6305952072143555}, {"id": "379", "name": "Ctra. De Motril 10", "lat": 37.02843, "lon": -3.63589}, {"id": "380", "name": "Ctra. De Motril 11", "lat": 37.00881, "lon": -3.58623}, {"id": "381", "name": "Ctra. De Motril 12", "lat": 36.99193, "lon": -3.56547}, {"id": "382", "name": "Ctra. De Motril 2", "lat": 37.11569, "lon": -3.63436}, {"id": "383", "name": "Ctra. De Motril 3", "lat": 37.11003, "lon": -3.63927}, {"id": "384", "name": "Ctra. De Motril 4", "lat": 37.10685318581063, "lon": -3.642108360578209}, {"id": "385", "name": "Ctra. De Motril 5", "lat": 37.10342, "lon": -3.64465}, {"id": "387", "name": "Ctra. De Motril 6", "lat": 37.09787, "lon": -3.64832}, {"id": "388", "name": "Ctra. De Motril 7", "lat": 37.095443040152624, "lon": -3.648190498352051}, {"id": "389", "name": "Ctra. De Motril 8", "lat": 37.08625, "lon": -3.64853}, {"id": "390", "name": "Ctra. De Motril 9", "lat": 37.04736, "lon": -3.64756}, {"id": "391", "name": "Ctra. De Murcia 1", "lat": 37.18792610288562, "lon": -3.599688032341419}, {"id": "392", "name": "Ctra. De Murcia 4", "lat": 37.18417, "lon": -3.59467}, {"id": "394", "name": "Ctra. De Ogíjares 1", "lat": 37.14437619718244, "lon": -3.602111756817976}, {"id": "395", "name": "Ctra. De Ogíjares 2", "lat": 37.14231916760949, "lon": -3.602357178942839}, {"id": "396", "name": "Ctra. De Pinos Genil", "lat": 37.16148900158396, "lon": -3.5058389604091644}, {"id": "397", "name": "Calvario", "lat": 37.20427916747829, "lon": -3.7718698382377625}, {"id": "398", "name": "Ctra. De Santa Fe 1", "lat": 37.19768827512441, "lon": -3.6473536491394043}, {"id": "399", "name": "Ctra. De Santa Fe 2", "lat": 37.191736749726836, "lon": -3.660772740840912}, {"id": "400", "name": "Ctra. De Santa Fe 3", "lat": 37.19243865030611, "lon": -3.669758141040802}, {"id": "401", "name": "Ctra. De Santa Fe 4", "lat": 37.19258287564442, "lon": -3.686210811138153}, {"id": "403", "name": "Ctra. De Santa Fe 5", "lat": 37.19312, "lon": -3.6991}, {"id": "405", "name": "Ctra. De Ogíjares 3", "lat": 37.13914146972645, "lon": -3.6023856103338403}, {"id": "406", "name": "Ctra. De Ogíjares 4", "lat": 37.1339778001824, "lon": -3.603147357734997}, {"id": "408", "name": "Ctra. De Víznar", "lat": 37.24554, "lon": -3.5535}, {"id": "409", "name": "Ctra. Vieja De Málaga 1", "lat": 37.18845767299154, "lon": -3.6153725812577022}, {"id": "410", "name": "Ctra. Vieja De Málaga 4", "lat": 37.18892354485168, "lon": -3.619756974913571}, {"id": "411", "name": "Ctra. Vieja De Málaga 5", "lat": 37.189372649088476, "lon": -3.6262299017948862}, {"id": "412", "name": "Ctra. Vieja De Málaga 6", "lat": 37.18983302323286, "lon": -3.6298947150007734}, {"id": "413", "name": "Cumbres Verdes", "lat": 37.096620192482256, "lon": -3.5432401088644383}, {"id": "414", "name": "Depósito Del Agua", "lat": 37.12595, "lon": -3.5497}, {"id": "416", "name": "Dúdar 1", "lat": 37.18556145277901, "lon": -3.4875141084194183}, {"id": "419", "name": "El Chaparral 1", "lat": 37.254975066629875, "lon": -3.656352460384369}, {"id": "420", "name": "El Chaparral 2", "lat": 37.25731701856034, "lon": -3.656969368457794}, {"id": "421", "name": "El Colmenar", "lat": 37.22984, "lon": -3.50037}, {"id": "422", "name": "El Fargue 1", "lat": 37.20053, "lon": -3.56645}, {"id": "423", "name": "El Fargue 2", "lat": 37.2025980665774, "lon": -3.564398309192711}, {"id": "424", "name": "El Fargue 3", "lat": 37.206794072116296, "lon": -3.5575482797622726}, {"id": "425", "name": "El Fargue 4", "lat": 37.20933429060559, "lon": -3.55655950429923}, {"id": "426", "name": "El Pilar", "lat": 37.07725, "lon": -3.60354}, {"id": "427", "name": "El Serrallo", "lat": 37.158, "lon": -3.57937}, {"id": "429", "name": "El Zahor", "lat": 36.99979, "lon": -3.5779}, {"id": "430", "name": "Embalse De Canales", "lat": 37.16119936310793, "lon": -3.4807777404785156}, {"id": "431", "name": "Mejorana", "lat": 37.11243483245509, "lon": -3.596725881116072}, {"id": "432", "name": "Segadores", "lat": 37.115225771156275, "lon": -3.577993333356062}, {"id": "433", "name": "Escóznar 1", "lat": 37.23813467303797, "lon": -3.8432179391384125}, {"id": "434", "name": "Escóznar 2", "lat": 37.23879984094681, "lon": -3.8459403812885284}, {"id": "435", "name": "España 1", "lat": 37.12919816771919, "lon": -3.566548079252243}, {"id": "436", "name": "España 2", "lat": 37.12645874828966, "lon": -3.5690975189208984}, {"id": "437", "name": "Estación De Autobuses 1", "lat": 37.200129215648786, "lon": -3.613198399543762}, {"id": "438", "name": "Everest 1", "lat": 37.11124183170139, "lon": -3.59538477669048}, {"id": "439", "name": "Everest 2", "lat": 37.112535041519145, "lon": -3.591957986354828}, {"id": "440", "name": "F. R. De La Fuente 1", "lat": 37.206324683973165, "lon": -3.641035705804825}, {"id": "441", "name": "Ctra. Gr-3423", "lat": 37.33018, "lon": -3.59952}, {"id": "442", "name": "Laurel De La Reina 1", "lat": 37.12146477319525, "lon": -3.5851458460092545}, {"id": "443", "name": "Plaza De Europa", "lat": 37.19710948825433, "lon": -3.621811509165127}, {"id": "444", "name": "Francisco Ayala 2", "lat": 37.191714314440894, "lon": -3.6153803765773773}, {"id": "446", "name": "Francisco Ayala 3", "lat": 37.19521761042047, "lon": -3.6191264167428017}, {"id": "448", "name": "Francisco Pradilla", "lat": 37.19043976558364, "lon": -3.614528775215149}, {"id": "450", "name": "Fuente Del Morquil", "lat": 37.24416922865809, "lon": -3.5564610957771947}, {"id": "452", "name": "Gabia Chica", "lat": 37.124679, "lon": -3.655429}, {"id": "453", "name": "Gerardo Talavera", "lat": 37.14750279210501, "lon": -3.6245807558543675}, {"id": "454", "name": "Avda. Ntra. Sra. De Los Dolores V", "lat": 37.20927276543498, "lon": -3.627070784568787}, {"id": "459", "name": "Murcia 2", "lat": 37.13958, "lon": -3.62446}, {"id": "460", "name": "C/ Granada", "lat": 37.27345096498596, "lon": -3.6201184988021855}, {"id": "462", "name": "Granada 1 V", "lat": 37.14928, "lon": -3.57542}, {"id": "463", "name": "Granada 1", "lat": 37.12876117174646, "lon": -3.6036797762039896}, {"id": "464", "name": "Granada 2 V", "lat": 37.1485, "lon": -3.57397}, {"id": "465", "name": "Granada 2", "lat": 37.126279217698254, "lon": -3.60407298804148}, {"id": "466", "name": "Granada 3 V", "lat": 37.14753, "lon": -3.57215}, {"id": "467", "name": "Granada 3 V", "lat": 37.12091923032401, "lon": -3.6052433901925567}, {"id": "468", "name": "Gredos 1", "lat": 37.11113, "lon": -3.59556}, {"id": "469", "name": "Gredos 2 V", "lat": 37.10963074289167, "lon": -3.5930009633466398}, {"id": "470", "name": "Güéjar Sierra 1", "lat": 37.158888628215536, "lon": -3.441052883863449}, {"id": "471", "name": "Güéjar Sierra 2", "lat": 37.15967099409916, "lon": -3.438960090279579}, {"id": "472", "name": "La Habana", "lat": 37.14718530665429, "lon": -3.6315625003680907}, {"id": "473", "name": "I.E.S. Blas Infante", "lat": 37.11841, "lon": -3.60417}, {"id": "474", "name": "I.E.S. Emilio Muñoz V", "lat": 37.28858150028905, "lon": -3.5674397751016613}, {"id": "475", "name": "Avda. Ntra. Sra. De Los Dolores", "lat": 37.20938384127175, "lon": -3.627145886421204}, {"id": "476", "name": "I.E.S. Trevenque", "lat": 37.12445, "lon": -3.57164}, {"id": "479", "name": "Iglesia Zujaira", "lat": 37.25725137231257, "lon": -3.8056978583335876}, {"id": "480", "name": "Iglesia Chauchina", "lat": 37.20151, "lon": -3.7709}, {"id": "481", "name": "Iglesia El Jau", "lat": 37.195811717463876, "lon": -3.7410064907497826}, {"id": "483", "name": "Iglesia Jun", "lat": 37.22136548489755, "lon": -3.594032272712866}, {"id": "484", "name": "Iglesia Gabia Grande V", "lat": 37.13675971240971, "lon": -3.6673007012723247}, {"id": "485", "name": "Iglesia Sierra Elvira", "lat": 37.228440492656794, "lon": -3.722534626722336}, {"id": "486", "name": "Íllora 1", "lat": 37.28369203875299, "lon": -3.8807380199432373}, {"id": "487", "name": "Íllora 2", "lat": 37.2851844988804, "lon": -3.881432309763113}, {"id": "488", "name": "Instituto", "lat": 37.14239, "lon": -3.61507}, {"id": "489", "name": "Instituto V", "lat": 37.13271, "lon": -3.55828}, {"id": "490", "name": "Isla", "lat": 37.221062513279875, "lon": -3.7792740762233734}, {"id": "492", "name": "Julián Besteiro 1", "lat": 37.11372042880058, "lon": -3.5815547704532946}, {"id": "493", "name": "Julián Besteiro 2", "lat": 37.11269866970046, "lon": -3.5834138095378876}, {"id": "494", "name": "La Colorá", "lat": 37.213495743847595, "lon": -3.609503644180336}, {"id": "497", "name": "La Joya 1", "lat": 37.22754, "lon": -3.62234}, {"id": "498", "name": "La Joya 2", "lat": 37.22903, "lon": -3.6206}, {"id": "499", "name": "La Molaina", "lat": 37.24204445226148, "lon": -3.737591877579689}, {"id": "500", "name": "La Terrona", "lat": 37.20082356067787, "lon": -3.624412715435028}, {"id": "501", "name": "Lancha Del Genil", "lat": 37.162463717749944, "lon": -3.5505111515522003}, {"id": "502", "name": "Bda. La Paz", "lat": 37.25557657308289, "lon": -3.760210946202278}, {"id": "503", "name": "Cno. De Gabia 1.", "lat": 37.116575377756234, "lon": -3.622763827443123}, {"id": "504", "name": "Las Pedrizas 1", "lat": 37.12211, "lon": -3.63152}, {"id": "505", "name": "Cno. De Gabia 2.", "lat": 37.117952764441355, "lon": -3.623548373579979}, {"id": "507", "name": "Libertad 1", "lat": 37.12534, "lon": -3.55467}, {"id": "508", "name": "Libertad 2", "lat": 37.12694, "lon": -3.5564}, {"id": "509", "name": "Libertad 3", "lat": 37.12809, "lon": -3.5577}, {"id": "510", "name": "Libreros", "lat": 37.124721727934, "lon": -3.570155436616125}, {"id": "511", "name": "Limones", "lat": 37.3830620537465, "lon": -3.78179669380188}, {"id": "512", "name": "Loja 1", "lat": 37.226612350242334, "lon": -3.64109069108963}, {"id": "513", "name": "Loja 2", "lat": 37.23019971753183, "lon": -3.6456383764743805}, {"id": "514", "name": "Loja 3", "lat": 37.23312063425158, "lon": -3.649247959256172}, {"id": "515", "name": "Los Llanos", "lat": 37.22361, "lon": -3.51133}, {"id": "516", "name": "Los Pastoreros", "lat": 37.218797396088114, "lon": -3.778427839279175}, {"id": "517", "name": "Los Pinillos", "lat": 37.157606043676374, "lon": -3.5274159908294678}, {"id": "518", "name": "Los Sifones", "lat": 37.22162130676933, "lon": -3.5144524751949575}, {"id": "522", "name": "Luis Javier", "lat": 37.21999799144097, "lon": -3.5741593838065455}, {"id": "525", "name": "Madrid 2", "lat": 37.1348103531827, "lon": -3.5590432584285736}, {"id": "526", "name": "Madrid 3", "lat": 37.13332154477422, "lon": -3.5605285316705704}, {"id": "528", "name": "Madrid 4", "lat": 37.13268, "lon": -3.56242}, {"id": "529", "name": "Madrid 5", "lat": 37.13191610414118, "lon": -3.563484326004982}, {"id": "535", "name": "Marchena", "lat": 37.00539, "lon": -3.58249}, {"id": "538", "name": "Mercagranada 1", "lat": 37.20355506918204, "lon": -3.654473793265638}, {"id": "539", "name": "Mercagranada 2", "lat": 37.20565, "lon": -3.66542}, {"id": "540", "name": "Moclín", "lat": 37.34031220724744, "lon": -3.7880612612752884}, {"id": "543", "name": "Monteluz 1", "lat": 37.238389064445734, "lon": -3.6439345300437935}, {"id": "544", "name": "Monteluz 2", "lat": 37.23993189537266, "lon": -3.6428475966504266}, {"id": "545", "name": "Monteluz 3", "lat": 37.24157803044873, "lon": -3.641549873718111}, {"id": "548", "name": "Motril 1", "lat": 37.22027900545728, "lon": -3.643750469300849}, {"id": "549", "name": "Motril 2", "lat": 37.222496518367, "lon": -3.645621746827601}, {"id": "550", "name": "Motril 3", "lat": 37.2250781793255, "lon": -3.6479495730488236}, {"id": "551", "name": "Motril 4", "lat": 37.226618757360896, "lon": -3.6497909724630517}, {"id": "554", "name": "Muntasil 1", "lat": 37.12475, "lon": -3.55073}, {"id": "558", "name": "Nuevas De Jardines", "lat": 37.23077045572185, "lon": -3.655748963356018}, {"id": "560", "name": "San José 1", "lat": 37.24919, "lon": -3.85965}, {"id": "561", "name": "Cacín", "lat": 37.05879, "lon": -3.91651}, {"id": "562", "name": "El Turro", "lat": 37.13377380349624, "lon": -3.941125273704529}, {"id": "565", "name": "Paseo Del Violón 2", "lat": 37.16470194900469, "lon": -3.5999386267389104}, {"id": "566", "name": "Palacio De Deportes", "lat": 37.15370471528664, "lon": -3.593226671218872}, {"id": "567", "name": "Ayto. La Zubia", "lat": 37.12019288919121, "lon": -3.5846543312072754}, {"id": "568", "name": "Parque De Los Pinos", "lat": 37.14213398147647, "lon": -3.564048052544308}, {"id": "570", "name": "C/ Brasil", "lat": 37.23120418724142, "lon": -3.6276562224098723}, {"id": "571", "name": "Parras", "lat": 37.2369761137715, "lon": -3.5660654157481986}, {"id": "572", "name": "Paseo Del Violón 1", "lat": 37.16524510564132, "lon": -3.599144810427686}, {"id": "574", "name": "Paseo De Cartuja 1", "lat": 37.18896241582701, "lon": -3.600410163435299}, {"id": "576", "name": "Palacio De Congresos", "lat": 37.166399861412536, "lon": -3.5979393124580383}, {"id": "579", "name": "Paseo De Los Leñadores 1", "lat": 37.13854854979955, "lon": -3.5707658529281616}, {"id": "581", "name": "Paseo De Recoletos", "lat": 37.13872602000696, "lon": -3.6218994855880737}, {"id": "582", "name": "Paseo Del Río", "lat": 37.13251003830477, "lon": -3.539024591445923}, {"id": "583", "name": "Paseo Del Salón", "lat": 37.16989, "lon": -3.59345}, {"id": "584", "name": "Pedro Ruíz", "lat": 37.22263769612105, "lon": -3.7501439452171326}, {"id": "586", "name": "Peñón De La Mata 1", "lat": 37.27366757666494, "lon": -3.5688376750376847}, {"id": "587", "name": "Peñón De La Mata 2", "lat": 37.27591596273754, "lon": -3.5722571573662663}, {"id": "588", "name": "Peñuelas", "lat": 37.174320689060664, "lon": -3.856576681137085}, {"id": "589", "name": "Avda. De Dílar 1", "lat": 37.161841268883336, "lon": -3.599273888494281}, {"id": "591", "name": "Plaza De Asegra", "lat": 37.227781640364334, "lon": -3.6290690302848816}, {"id": "592", "name": "Plaza Baja", "lat": 37.12336689176131, "lon": -3.6048822104930878}, {"id": "593", "name": "Real Baja", "lat": 37.12229, "lon": -3.60616}, {"id": "594", "name": "Plaza De La Constitución", "lat": 37.17100797764212, "lon": -3.692290037870407}, {"id": "595", "name": "Plaza De La Constitución", "lat": 37.1995416879432, "lon": -3.8105928897857666}, {"id": "596", "name": "Plaza De La Constitución V", "lat": 37.09192575947642, "lon": -3.634554147720337}, {"id": "598", "name": "Plaza De La Fortaleza", "lat": 37.220383323585835, "lon": -3.515994499164208}, {"id": "599", "name": "Plaza Del Retiro", "lat": 37.1344505827757, "lon": -3.568507432937622}, {"id": "600", "name": "Plaza Era Baja", "lat": 37.20487733991753, "lon": -3.637033849954605}, {"id": "601", "name": "Plaza Estación De Tranvías", "lat": 37.13668, "lon": -3.66542}, {"id": "603", "name": "Plaza Flor De Cuba", "lat": 37.23692, "lon": -3.5663}, {"id": "604", "name": "Plaza Fontiveros", "lat": 37.16103947366962, "lon": -3.595050573348999}, {"id": "605", "name": "Plaza Mayor", "lat": 37.17006222531313, "lon": -3.664219379425049}, {"id": "606", "name": "Plaza Miraflores", "lat": 37.13238387446197, "lon": -3.540749251842499}, {"id": "607", "name": "Plaza Mundo Nuevo", "lat": 37.14371960438361, "lon": -3.5661209374666214}, {"id": "608", "name": "Plaza San Isidro", "lat": 37.18718385262273, "lon": -3.603956177830696}, {"id": "609", "name": "Plaza San Miguel", "lat": 37.14050455745347, "lon": -3.5620460024191516}, {"id": "611", "name": "Políg. Ind. El Rey", "lat": 37.21226544676033, "lon": -3.6844056844711304}, {"id": "612", "name": "Avda. Serrezuela", "lat": 37.08767, "lon": -3.75429}, {"id": "613", "name": "Pol. Ind. La Fuente", "lat": 37.2168707648051, "lon": -3.7255266308784485}, {"id": "614", "name": "Pol. Ind. Olinda", "lat": 37.21595, "lon": -3.62421}, {"id": "615", "name": "Polideportivo", "lat": 37.2341915, "lon": -3.6506042}, {"id": "616", "name": "Polideportivo", "lat": 37.13835183534821, "lon": -3.62024188041687}, {"id": "618", "name": "Polideportivo", "lat": 37.21486932299514, "lon": -3.7721407413482666}, {"id": "619", "name": "Polideportivo", "lat": 37.117353048238606, "lon": -3.5774059295818006}, {"id": "620", "name": "Polideportivo V", "lat": 37.09010073138953, "lon": -3.6312335729599}, {"id": "626", "name": "Primero De Mayo", "lat": 37.117576766054576, "lon": -3.583867907655076}, {"id": "628", "name": "Profesor Emilio Orozco", "lat": 37.18242980733476, "lon": -3.600883036851883}, {"id": "629", "name": "Progreso", "lat": 37.13726, "lon": -3.66209}, {"id": "630", "name": "Río", "lat": 37.220899934022796, "lon": -3.4814353456652043}, {"id": "631", "name": "Río V", "lat": 37.2209, "lon": -3.51875}, {"id": "633", "name": "Puente De Dúrcal", "lat": 36.99836, "lon": -3.57481}, {"id": "636", "name": "Puerto Lope", "lat": 37.33681954697557, "lon": -3.8321873545646667}, {"id": "639", "name": "Ctra. De Córdoba 2", "lat": 37.254055039118455, "lon": -3.7578238511414}, {"id": "640", "name": "Real", "lat": 37.197003515706776, "lon": -3.810761868953705}, {"id": "641", "name": "Real 2", "lat": 37.23598494860763, "lon": -3.826375007629395}, {"id": "642", "name": "Real 1", "lat": 37.19685823053864, "lon": -3.8306598365306854}, {"id": "644", "name": "Real 2", "lat": 37.19603351825659, "lon": -3.834874927997589}, {"id": "645", "name": "Real 3", "lat": 37.25182868797632, "lon": -3.752431869506836}, {"id": "647", "name": "Real De Málaga 1", "lat": 37.1346, "lon": -3.66939}, {"id": "648", "name": "Real De Málaga 2", "lat": 37.13337, "lon": -3.67124}, {"id": "649", "name": "Ctra. De Córdoba 2 V", "lat": 37.25401742930675, "lon": -3.757742968040064}, {"id": "650", "name": "Rebites 1", "lat": 37.1544234, "lon": -3.5718846}, {"id": "651", "name": "Ventas De Algarra", "lat": 37.30620437296224, "lon": -3.8194777071475983}, {"id": "652", "name": "Ventas De Algarra V", "lat": 37.306247041952545, "lon": -3.8196372985839844}, {"id": "654", "name": "Rector Marín Ocete", "lat": 37.18300090691289, "lon": -3.6059443652629852}, {"id": "655", "name": "Residencia", "lat": 37.13943812805798, "lon": -3.619136810302735}, {"id": "656", "name": "Residencia V", "lat": 37.28193, "lon": -3.57021}, {"id": "657", "name": "Residencia", "lat": 37.269986740566274, "lon": -3.6834320425987244}, {"id": "658", "name": "Residencia", "lat": 37.22995091917644, "lon": -3.636014610528946}, {"id": "659", "name": "Río Aguas Blancas V", "lat": 37.16307, "lon": -3.51811}, {"id": "660", "name": "Río Monachil", "lat": 37.15469278582922, "lon": -3.610914230371236}, {"id": "662", "name": "Río Monachil", "lat": 37.14098017614254, "lon": -3.5695206373929977}, {"id": "663", "name": "Romilla", "lat": 37.20198111284725, "lon": -3.79364845527914}, {"id": "665", "name": "San Cayetano 1", "lat": 37.14584426333775, "lon": -3.633318319916725}, {"id": "666", "name": "San Cayetano 2", "lat": 37.14284363956995, "lon": -3.632456660270691}, {"id": "667", "name": "San Ildefonso", "lat": 37.23245114514914, "lon": -3.62902007997036}, {"id": "669", "name": "San Miguel 2", "lat": 37.1437987122521, "lon": -3.621082752943039}, {"id": "670", "name": "San Miguel 3", "lat": 37.141740811728, "lon": -3.619270920753479}, {"id": "671", "name": "San Ramón 1", "lat": 37.14297, "lon": -3.63944}, {"id": "672", "name": "San Ramón 2", "lat": 37.14525952038578, "lon": -3.643229752779007}, {"id": "673", "name": "San Ramón 3", "lat": 37.145749657152074, "lon": -3.645143508911133}, {"id": "674", "name": "San Ramón 4", "lat": 37.14661126392064, "lon": -3.6481931805610657}, {"id": "675", "name": "San Ramón 5", "lat": 37.147094443569586, "lon": -3.652808591723442}, {"id": "676", "name": "Rebites 3", "lat": 37.15268819913267, "lon": -3.568384051322937}, {"id": "677", "name": "Rebites 4", "lat": 37.151611810138334, "lon": -3.5664233565330505}, {"id": "678", "name": "Santa Adela", "lat": 37.248249822761096, "lon": -3.74689444899559}, {"id": "679", "name": "Santa Fe De Bogotá 1", "lat": 37.188872457655506, "lon": -3.7212511897087097}, {"id": "680", "name": "Santa Fe De Bogotá 2", "lat": 37.18543003526311, "lon": -3.7229597568511963}, {"id": "681", "name": "Sierra Elvira", "lat": 37.23180193791784, "lon": -3.7262025475502014}, {"id": "682", "name": "Sotanillas", "lat": 37.218118584658484, "lon": -3.521739435016343}, {"id": "683", "name": "Tierno Galván", "lat": 37.139990750453904, "lon": -3.628442734479904}, {"id": "684", "name": "Tocón 1", "lat": 37.23774, "lon": -3.96333}, {"id": "685", "name": "Tocón 2", "lat": 37.2376, "lon": -3.9664}, {"id": "686", "name": "Tózar", "lat": 37.369145716764734, "lon": -3.778112679719925}, {"id": "687", "name": "Trasmulas", "lat": 37.197984183278365, "lon": -3.8712208718061447}, {"id": "688", "name": "Urb. Bojaira", "lat": 37.13346160627494, "lon": -3.567016124725342}, {"id": "689", "name": "Urb. Caserío De Millán", "lat": 37.13178512793317, "lon": -3.566647320985794}, {"id": "690", "name": "Urb. Cortijo Del Aire 1", "lat": 37.249381992167, "lon": -3.6514310436939468}, {"id": "691", "name": "Urb. Cortijo Del Aire 2", "lat": 37.25002157362197, "lon": -3.653168059913355}, {"id": "692", "name": "Urb. Cubillas 1", "lat": 37.28660608043148, "lon": -3.6705145239830017}, {"id": "693", "name": "Urb. Cubillas 2", "lat": 37.28525257492365, "lon": -3.668879047036171}, {"id": "694", "name": "Urb. El Carmelo", "lat": 37.12998244460204, "lon": -3.6225324869155884}, {"id": "695", "name": "Urb. El Puntal", "lat": 37.03806, "lon": -3.64076}, {"id": "697", "name": "Urb. Llanos De Silva 1", "lat": 37.28535340845547, "lon": -3.6750608682632446}, {"id": "699", "name": "Urb. Loma Verde 2", "lat": 37.24546, "lon": -3.6526}, {"id": "700", "name": "Urb. Loma Verde 3", "lat": 37.24698932435549, "lon": -3.649882088303002}, {"id": "701", "name": "Urb. Lomalinda", "lat": 37.1147878389641, "lon": -3.6209124326705933}, {"id": "702", "name": "Urb. Los Ángeles", "lat": 37.08880414311474, "lon": -3.6243215203285217}, {"id": "703", "name": "Urb. Los Cerezos 2", "lat": 37.10891, "lon": -3.603}, {"id": "704", "name": "Urb. Los Cerezos 3", "lat": 37.113640861694954, "lon": -3.6027296036400003}, {"id": "705", "name": "San Jerónimo 1", "lat": 37.21255, "lon": -3.59259}, {"id": "707", "name": "Urb. Los Chopos", "lat": 37.13924464, "lon": -3.65150752}, {"id": "708", "name": "Urb. Los Olivos", "lat": 37.23601224332956, "lon": -3.6082577840613794}, {"id": "709", "name": "Urb. Molino Alto 1", "lat": 37.08650831441637, "lon": -3.617864102125168}, {"id": "710", "name": "Urb. Molino Alto 2", "lat": 37.08789, "lon": -3.61742}, {"id": "711", "name": "Urb. Monte Oliva", "lat": 37.08706822915692, "lon": -3.641024737586192}, {"id": "712", "name": "Urb. San Jerónimo", "lat": 37.21183865029684, "lon": -3.5934605598777125}, {"id": "713", "name": "Urb. Santa Marta", "lat": 37.09481, "lon": -3.60537}, {"id": "714", "name": "Urb. Suspiro Del Moro", "lat": 37.08069, "lon": -3.65361}, {"id": "715", "name": "Urb. Villas Blancas 1", "lat": 37.25143, "lon": -3.65655}, {"id": "716", "name": "Urb. Villas Blancas 2", "lat": 37.25389, "lon": -3.65613}, {"id": "717", "name": "Urb. Viña Del Rey", "lat": 37.08932406483948, "lon": -3.6480724811553955}, {"id": "720", "name": "Urb. Víznar", "lat": 37.233635186518285, "lon": -3.5527874082572453}, {"id": "728", "name": "Zujaira 1", "lat": 37.25600845923252, "lon": -3.7990320325388893}, {"id": "729", "name": "Zujaira 2", "lat": 37.25510476186129, "lon": -3.8045498728752136}, {"id": "731", "name": "Acceso A Albolote V", "lat": 37.236290749928926, "lon": -3.6463263630867004}, {"id": "732", "name": "Acceso A Láchar V", "lat": 37.19471524183164, "lon": -3.8379138708114624}, {"id": "733", "name": "Acceso A Maracena V", "lat": 37.20976828989695, "lon": -3.62373948097229}, {"id": "734", "name": "Acceso A Peñuelas V", "lat": 37.1753882060869, "lon": -3.858530670404434}, {"id": "737", "name": "Acceso A Ambroz V", "lat": 37.16588688118641, "lon": -3.6714184284210205}, {"id": "738", "name": "Acceso A Víznar V", "lat": 37.23070820329589, "lon": -3.5567592233337564}, {"id": "740", "name": "Acceso Fuente Vaqueros", "lat": 37.22641906857646, "lon": -3.7184717506170273}, {"id": "741", "name": "Acceso Haza Grande V", "lat": 37.19049, "lon": -3.59265}, {"id": "742", "name": "Acceso Jun V", "lat": 37.217073042035615, "lon": -3.5897387266322767}, {"id": "744", "name": "Acceso A Otura V", "lat": 37.08509184114673, "lon": -3.647359013557434}, {"id": "748", "name": "Acceso A Ctra. De Santa Fe V", "lat": 37.21817156671026, "lon": -3.696295917034149}, {"id": "749", "name": "Cruce Urb. Abén Humeya V", "lat": 37.219463161771166, "lon": -3.5864591896370257}, {"id": "754", "name": "Alhambra V", "lat": 37.19973, "lon": -3.80692}, {"id": "755", "name": "Alomartes 1 V", "lat": 37.26379073847101, "lon": -3.9101613164439186}, {"id": "756", "name": "Alomartes 2 V", "lat": 37.26133093774331, "lon": -3.9121346175670624}, {"id": "757", "name": "Ancha V", "lat": 37.16491434661664, "lon": -3.662097752094269}, {"id": "758", "name": "Ancha De Capuchinos 1 V", "lat": 37.18608818898251, "lon": -3.6030422151088715}, {"id": "759", "name": "Andrés Segovia 1 V", "lat": 37.15837901685229, "lon": -3.5951803923308034}, {"id": "760", "name": "Andrés Segovia 2", "lat": 37.1627, "lon": -3.5946}, {"id": "762", "name": "Ángel Ganivet 2 V", "lat": 37.2333203052891, "lon": -3.652549088001251}, {"id": "766", "name": "Avda. De La Alfaguara 1", "lat": 37.24477968241316, "lon": -3.5594824701547623}, {"id": "767", "name": "Avda. De La Alfaguara 2", "lat": 37.242666880649644, "lon": -3.560989201068878}, {"id": "768", "name": "Avda. De La Alfaguara 4", "lat": 37.23819585165096, "lon": -3.5662246048696034}, {"id": "770", "name": "Avda. De Andalucía V", "lat": 37.27269556690188, "lon": -3.623405862299933}, {"id": "771", "name": "Avda. De Andalucía V", "lat": 37.19549, "lon": -3.73882}, {"id": "775", "name": "Avda. De Andalucía 1 V", "lat": 37.150375600696826, "lon": -3.6661217361688614}, {"id": "776", "name": "Avda. De Andalucía 1 V", "lat": 37.1896696840758, "lon": -3.6151601672827383}, {"id": "777", "name": "Avda. De Andalucía 1 V", "lat": 37.25445, "lon": -3.59931}, {"id": "778", "name": "Avda. De Andalucía 1 V", "lat": 37.14664547143094, "lon": -3.5755227506160736}, {"id": "779", "name": "Avda. De Andalucía 1 V", "lat": 37.222721526963866, "lon": -3.628750517964363}, {"id": "782", "name": "Avda. De Andalucía 2 V", "lat": 37.15311, "lon": -3.66868}, {"id": "783", "name": "Avda. De Andalucía 2 V", "lat": 37.191390604573144, "lon": -3.6191287636756897}, {"id": "784", "name": "Avda. De Andalucía 2 V", "lat": 37.25769105250361, "lon": -3.5951805610388874}, {"id": "785", "name": "Avda. De Andalucía 2 V", "lat": 37.145965594261455, "lon": -3.573645204305649}, {"id": "786", "name": "Avda. De Andalucía 2 V", "lat": 37.225704135678576, "lon": -3.626684546470642}, {"id": "788", "name": "Avda. De Andalucía 3 V", "lat": 37.15459, "lon": -3.67045}, {"id": "789", "name": "Avda. De Andalucía 3 V", "lat": 37.19320250729697, "lon": -3.6243771761655807}, {"id": "790", "name": "Avda. De Andalucía 3 V", "lat": 37.14475334527692, "lon": -3.5721150040626526}, {"id": "791", "name": "Avda. De Andalucía 3 V", "lat": 37.22652585408844, "lon": -3.624584376811981}, {"id": "792", "name": "Avda. De Andalucía 4 V", "lat": 37.15926, "lon": -3.67357}, {"id": "793", "name": "Avda. De Andalucía 4 V", "lat": 37.19434347089916, "lon": -3.6268776655197144}, {"id": "794", "name": "Avda. De Andalucía 4 V", "lat": 37.14219, "lon": -3.56971}, {"id": "795", "name": "Avda. De Andalucía 5 V", "lat": 37.19545557332215, "lon": -3.6294955015182495}, {"id": "796", "name": "Avda. De Argentina 1 V", "lat": 37.21029378913937, "lon": -3.637027144432068}, {"id": "797", "name": "Avda. De Argentina 2 V", "lat": 37.20891808418544, "lon": -3.6400821805000305}, {"id": "798", "name": "Avda. De La Alfaguara 3", "lat": 37.24007229187284, "lon": -3.565288782119751}, {"id": "799", "name": "Avda. De Blas De Otero 1 V", "lat": 37.20553361508401, "lon": -3.628526017078002}, {"id": "800", "name": "Avda. De Blas De Otero 2 V", "lat": 37.20786706287976, "lon": -3.6313435435295105}, {"id": "801", "name": "Avda. De Blas De Otero 3 V", "lat": 37.209882361997956, "lon": -3.632843300724744}, {"id": "802", "name": "Avda. De Carmen Morcillo 1 V", "lat": 37.10534, "lon": -3.60333}, {"id": "803", "name": "Avda .De Carmen Morcillo 2 V", "lat": 37.10338, "lon": -3.60361}, {"id": "804", "name": "Avda. De Carmen Morcillo 3 V", "lat": 37.09974, "lon": -3.60375}, {"id": "806", "name": "Avda. De Cervantes 2", "lat": 37.16646, "lon": -3.59035}, {"id": "807", "name": "Ilíberis V", "lat": 37.22513805778112, "lon": -3.675939291715622}, {"id": "812", "name": "Avda. De Córdoba 2", "lat": 37.22466028943987, "lon": -3.6289751529693604}, {"id": "813", "name": "Avda. De Córdoba 3", "lat": 37.2233553278365, "lon": -3.628183901309967}, {"id": "814", "name": "Avda. De Córdoba 1", "lat": 37.22612113619853, "lon": -3.629836142063141}, {"id": "815", "name": "Avda. De Andalucía 1 V", "lat": 37.02616, "lon": -3.63065}, {"id": "816", "name": "Avda. De Andalucía 2 V", "lat": 37.02285, "lon": -3.62556}, {"id": "817", "name": "Avda. De Andalucía 3 V", "lat": 37.02409, "lon": -3.62109}, {"id": "818", "name": "Avda. De La Estación 1 V", "lat": 37.22284465670205, "lon": -3.689920037968477}, {"id": "822", "name": "Avda. De Los Almendros 1 V", "lat": 37.14763534455872, "lon": -3.5672159492969513}, {"id": "823", "name": "Avda. De Los Almendros 2 V", "lat": 37.14661553986026, "lon": -3.5656535625457764}, {"id": "824", "name": "Avda. De Los Almendros 3 V", "lat": 37.14537817974164, "lon": -3.565177470445633}, {"id": "825", "name": "Avda. De Los Almendros 4 V", "lat": 37.14366, "lon": -3.56458}, {"id": "826", "name": "Avda. De Los Colorados 1 V", "lat": 37.15079, "lon": -3.56783}, {"id": "827", "name": "Avda. De Los Colorados 2 V", "lat": 37.15042, "lon": -3.56983}, {"id": "828", "name": "Avda. De Los Colorados 3 V", "lat": 37.14971, "lon": -3.5728}, {"id": "829", "name": "Avda. De Los Colorados 4 V", "lat": 37.14985, "lon": -3.57418}, {"id": "833", "name": "Avda. Del Norte", "lat": 36.99412, "lon": -3.57163}, {"id": "834", "name": "Avda. Del Sur", "lat": 36.98021, "lon": -3.56199}, {"id": "835", "name": "Avda. De Dílar 4 V", "lat": 37.152398526938015, "lon": -3.6009095907047595}, {"id": "836", "name": "Avda. De Dílar 3 V", "lat": 37.156221896782576, "lon": -3.600421160467704}, {"id": "837", "name": "Avda. De Dílar 2 V", "lat": 37.158537202229155, "lon": -3.599858164852776}, {"id": "838", "name": "Avda. De Dílar 5 V", "lat": 37.150230760308645, "lon": -3.6014578342110326}, {"id": "839", "name": "Avda. De América 1 V", "lat": 37.162540454725885, "lon": -3.601078569954552}, {"id": "841", "name": "Avda. Doña Juana 1", "lat": 37.14909340621615, "lon": -3.5706062614917755}, {"id": "842", "name": "Avda. Doña Juana 2", "lat": 37.14846566280863, "lon": -3.5720838233828545}, {"id": "843", "name": "Mezquita V", "lat": 37.14436850026632, "lon": -3.6179298162460327}, {"id": "848", "name": "Avda. De La Hispanidad 1 V", "lat": 37.19131752928065, "lon": -3.7117609977804022}, {"id": "849", "name": "Avda. De La Hispanidad 2 V", "lat": 37.19025386982016, "lon": -3.715977966785431}, {"id": "851", "name": "Avda. Contreras Ruiz 2 V", "lat": 37.234555691341214, "lon": -3.621373772621155}, {"id": "860", "name": "Avda. De Madrid 2 V", "lat": 37.1910975, "lon": -3.60723583}, {"id": "861", "name": "Avda. Fernando De Los Ríos 1", "lat": 37.1603, "lon": -3.60499}, {"id": "862", "name": "Avda. De Maracena V", "lat": 37.203020853549894, "lon": -3.6263184249401093}, {"id": "863", "name": "Avda. Fernando De Los Ríos 2", "lat": 37.1588, "lon": -3.60659}, {"id": "864", "name": "Avda. Palos De La Frontera 2", "lat": 37.19274041939384, "lon": -3.717600703239441}, {"id": "870", "name": "Avda. De Pulianas 2 V", "lat": 37.19294824526853, "lon": -3.604293465614319}, {"id": "871", "name": "Avda. De Pulianas 2 V", "lat": 37.23138870606148, "lon": -3.626178279519081}, {"id": "872", "name": "Avda. De Pulianas 3 V", "lat": 37.197274856374996, "lon": -3.6041727662086487}, {"id": "873", "name": "Avda. De Pulianas 4 V", "lat": 37.201949454272544, "lon": -3.6058545112609863}, {"id": "874", "name": "Avda. De Pulianas 5 V", "lat": 37.20563252585096, "lon": -3.6082443594932556}, {"id": "875", "name": "Avda. De Pulianas 6 V", "lat": 37.207025380791166, "lon": -3.609183132648468}, {"id": "876", "name": "Avda. De Pulianas 7 V", "lat": 37.210074831566445, "lon": -3.6099234223365784}, {"id": "878", "name": "Avda. De Reina Sofía 2 V", "lat": 37.23395027996265, "lon": -3.631458878517151}, {"id": "879", "name": "Avda. Reyes Católicos 1 V", "lat": 37.22803904654763, "lon": -3.65420937538147}, {"id": "880", "name": "Avda. Reyes Católicos 2 V", "lat": 37.22790433468934, "lon": -3.6566646695382587}, {"id": "881", "name": "Avda. De San Antón 1 V", "lat": 37.164366622463014, "lon": -3.667568787932396}, {"id": "882", "name": "Avda. De San Antón 2 V", "lat": 37.16453013857718, "lon": -3.6637231707572937}, {"id": "883", "name": "Avda. San Miguel", "lat": 37.15012707366111, "lon": -3.677532523870468}, {"id": "884", "name": "Avda. Vista Alegre 1 V", "lat": 37.234499101065616, "lon": -3.6196812987327576}, {"id": "886", "name": "Avda. Suspiro Del Moro V", "lat": 37.08942, "lon": -3.63728}, {"id": "887", "name": "Avda. Reyes Católicos 3 V", "lat": 37.22761612551259, "lon": -3.6593028903007507}, {"id": "888", "name": "Ayuntamiento Alhendín V", "lat": 37.10789, "lon": -3.64521}, {"id": "890", "name": "Ayuntamiento Chauchina V", "lat": 37.20183, "lon": -3.77293}, {"id": "892", "name": "Ayuntamiento Fuente Vaqueros V", "lat": 37.21916157086193, "lon": -3.7833188474178314}, {"id": "893", "name": "Ayuntamiento Güevéjar V", "lat": 37.25787, "lon": -3.59771}, {"id": "897", "name": "Ayuntamiento Santa Fe V", "lat": 37.1896801541472, "lon": -3.718569651246071}, {"id": "899", "name": "Arrecife", "lat": 37.18891412474935, "lon": -3.721543550491333}, {"id": "900", "name": "Barcelona", "lat": 37.13373752723609, "lon": -3.6243188381195073}, {"id": "903", "name": "Base Aérea V", "lat": 37.13671823036104, "lon": -3.628806173801422}, {"id": "904", "name": "Batán", "lat": 37.24854499883703, "lon": -3.744913637638092}, {"id": "905", "name": "Baza 1", "lat": 37.2329796896714, "lon": -3.649832010269165}, {"id": "906", "name": "Baza 2", "lat": 37.22958, "lon": -3.64567}, {"id": "907", "name": "Baza 3", "lat": 37.22651624339858, "lon": -3.6419275403022766}, {"id": "908", "name": "Urb. Villasol", "lat": 37.21311, "lon": -3.6245}, {"id": "910", "name": "Bco. Malacabí 2 V", "lat": 37.13020549759676, "lon": -3.5642051696777344}, {"id": "912", "name": "Bda. García Lorca V", "lat": 37.225046861291595, "lon": -3.7866809964179993}, {"id": "914", "name": "Biblioteca V", "lat": 37.229530736398964, "lon": -3.6278164386749268}, {"id": "916", "name": "Bobadilla V", "lat": 37.19169, "lon": -3.64418}, {"id": "917", "name": "Bola De Oro V", "lat": 37.16153, "lon": -3.58592}, {"id": "919", "name": "Buena Vista V", "lat": 37.23839518893748, "lon": -3.733695298433304}, {"id": "920", "name": "Buenavista V", "lat": 37.19030408308874, "lon": -3.7214880288138374}, {"id": "924", "name": "Real V", "lat": 37.231961570806305, "lon": -3.6576761305332184}, {"id": "926", "name": "Laurel De La  Reina 2 V", "lat": 37.12457841414052, "lon": -3.585560917854309}, {"id": "927", "name": "Camping V", "lat": 37.26831542631046, "lon": -3.6811213195323944}, {"id": "928", "name": "Camping V", "lat": 37.19147, "lon": -3.65286}, {"id": "929", "name": "Cañada", "lat": 37.22800060929927, "lon": -3.689346897957647}, {"id": "930", "name": "Camping", "lat": 37.22473076315318, "lon": -3.4888245767211856}, {"id": "933", "name": "Paseo Cartuja V", "lat": 37.1906849549856, "lon": -3.6007989496238224}, {"id": "936", "name": "Carrera De La Virgen 2 V", "lat": 37.19736, "lon": -3.77303}, {"id": "938", "name": "Carrera De La Virgen 3 V", "lat": 37.2000565761075, "lon": -3.7724827229976654}, {"id": "939", "name": "Gladiolo", "lat": 37.19356, "lon": -3.77524}, {"id": "941", "name": "Casa De La Culrura", "lat": 37.14321868136217, "lon": -3.6258348772946647}, {"id": "942", "name": "Casa De La Cultura V", "lat": 37.131660566676075, "lon": -3.5607122629880905}, {"id": "944", "name": "Casa Real V", "lat": 37.23230592822748, "lon": -3.7930136919021606}, {"id": "945", "name": "Casanueva 1 V", "lat": 37.25789555700186, "lon": -3.787619099020958}, {"id": "946", "name": "Casanueva 2 V", "lat": 37.257240698120505, "lon": -3.7913252413272858}, {"id": "951", "name": "Cenes De La Vega", "lat": 37.157593752135945, "lon": -3.5306641459465027}, {"id": "953", "name": "Cenes De La Vega 1 V", "lat": 37.1584632400884, "lon": -3.532681167125702}, {"id": "954", "name": "Cenes De La Vega 2 V", "lat": 37.15859256688282, "lon": -3.5362283885478973}, {"id": "955", "name": "Cenes De La Vega 3 V", "lat": 37.15939096789636, "lon": -3.5386785864830017}, {"id": "956", "name": "Cenes De La Vega 4 V", "lat": 37.16021821788296, "lon": -3.5413728654384613}, {"id": "957", "name": "Cenes De La Vega 5 V", "lat": 37.16116943729807, "lon": -3.544635772705078}, {"id": "958", "name": "Cenes De La Vega 6 V", "lat": 37.16185665915799, "lon": -3.546312153339386}, {"id": "960", "name": "Central Eléctrica V", "lat": 37.16430303276752, "lon": -3.4943148493766785}, {"id": "965", "name": "Clavel 1", "lat": 37.16067245336653, "lon": -3.6924992501735687}, {"id": "966", "name": "Clavel 2", "lat": 37.159684354102, "lon": -3.6958613991737366}, {"id": "968", "name": "Chimeneas 1 V", "lat": 37.13404130845165, "lon": -3.8220734149217606}, {"id": "969", "name": "Chimeneas 2 V", "lat": 37.1321730306923, "lon": -3.822000592963377}, {"id": "970", "name": "Chimeneas 3 V", "lat": 37.129071891457514, "lon": -3.8219311237662623}, {"id": "972", "name": "Circunvalación 1 V", "lat": 37.21761585, "lon": -3.687553011}, {"id": "973", "name": "Clavel 1 V", "lat": 37.16060725738253, "lon": -3.6926843225955963}, {"id": "975", "name": "Cno. Bajo De Huétor V", "lat": 37.15647, "lon": -3.58509}, {"id": "976", "name": "Cno. De Las Canteras", "lat": 37.12918801002389, "lon": -3.565778285264969}, {"id": "978", "name": "Cno. De Churriana V", "lat": 37.14705143551314, "lon": -3.6274817610498076}, {"id": "982", "name": "Cno. De Gójar 1 V", "lat": 37.11500290199095, "lon": -3.5930249690682103}, {"id": "984", "name": "Cno. De Gójar 3 V", "lat": 37.11147626238837, "lon": -3.5998474360167165}, {"id": "985", "name": "Cno. De Gójar 4 V", "lat": 37.11032078596605, "lon": -3.602379441326775}, {"id": "986", "name": "Cno. De Huétor V", "lat": 37.162591434561826, "lon": -3.5870562493801117}, {"id": "987", "name": "Cno. De La Sierra", "lat": 37.07583, "lon": -3.60091}, {"id": "988", "name": "Cno. De Las Galeras 1 V", "lat": 37.160546336494214, "lon": -3.689116984605789}, {"id": "991", "name": "Ancha 1 V", "lat": 37.16767481593504, "lon": -3.662767633795738}, {"id": "992", "name": "Cno. Del Jau V", "lat": 37.193240802066825, "lon": -3.7273675784360876}, {"id": "993", "name": "Cno. Del Jueves", "lat": 37.14241301000554, "lon": -3.623233527385537}, {"id": "996", "name": "Cno. De Gabia 3 V", "lat": 37.11298421607195, "lon": -3.6196893453598022}, {"id": "997", "name": "Cno. Encantado 2", "lat": 37.11358, "lon": -3.61538}, {"id": "1000", "name": "Real 1", "lat": 37.171847389709065, "lon": -3.689918965101242}, {"id": "1001", "name": "Real 2", "lat": 37.1724, "lon": -3.68569}, {"id": "1002", "name": "Cno. Real De Los Neveros 1", "lat": 37.16067, "lon": -3.58419}, {"id": "1005", "name": "Colegio Fuente De La Reina V", "lat": 37.19568495607444, "lon": -3.742145003647238}, {"id": "1006", "name": "Colegio Las Alhomas V", "lat": 37.25648496147981, "lon": -3.795475959777832}, {"id": "1007", "name": "Colegio Mulhacén V", "lat": 37.20081715136835, "lon": -3.6516210436820984}, {"id": "1008", "name": "Colomera 1 V", "lat": 37.36802445362833, "lon": -3.712994009256363}, {"id": "1009", "name": "Colomera 2 V", "lat": 37.37322241155455, "lon": -3.7113645672798157}, {"id": "1010", "name": "Comandante Lázaro 1", "lat": 36.98296, "lon": -3.56399}, {"id": "1011", "name": "Concepción Arenal", "lat": 37.19095151075242, "lon": -3.6063192039728165}, {"id": "1018", "name": "Cortijo Labella V", "lat": 37.12299156182964, "lon": -3.546402007341385}, {"id": "1019", "name": "Acceso A Padul V", "lat": 37.02042, "lon": -3.60653}, {"id": "1020", "name": "Cruce Suspiro Del Moro", "lat": 37.08419, "lon": -3.64881}, {"id": "1022", "name": "Cruces 1", "lat": 37.114943732521624, "lon": -3.609721690288852}, {"id": "1023", "name": "Cruces 2", "lat": 37.11638505002876, "lon": -3.6078451733227372}, {"id": "1024", "name": "Cruces 3", "lat": 37.1184409393443, "lon": -3.606644421815872}, {"id": "1025", "name": "Cruces Del Santo Cristo V", "lat": 37.22229, "lon": -3.60979}, {"id": "1027", "name": "Avda. Fernando De Los Ríos V", "lat": 37.16185125457925, "lon": -3.603166937828064}, {"id": "1029", "name": "Ctra. Antigua De Motril 1 V", "lat": 37.02358, "lon": -3.61705}, {"id": "1030", "name": "Ctra. Antigua De Motril 2 V", "lat": 37.02188, "lon": -3.61168}, {"id": "1031", "name": "Ctra. Antigua De Motril 3 V", "lat": 37.01805, "lon": -3.59781}, {"id": "1032", "name": "Ctra. Antigua De Motril 4 V", "lat": 37.01302, "lon": -3.59078}, {"id": "1033", "name": "Ctra. De Albolote 2 V", "lat": 37.217402622481934, "lon": -3.641635715994198}, {"id": "1034", "name": "Ctra. De Alfacar 1 V", "lat": 37.19609323542977, "lon": -3.6011623889453404}, {"id": "1035", "name": "Ctra. De Alfacar 2 V", "lat": 37.198138439633894, "lon": -3.60026559234484}, {"id": "1036", "name": "Ctra. De Alfacar 3 V", "lat": 37.199769115129136, "lon": -3.5996726900339127}, {"id": "1037", "name": "Ctra. De Alfacar 4 V", "lat": 37.20309, "lon": -3.59767}, {"id": "1040", "name": "Ctra. De Alhama 2 V", "lat": 37.142258231985664, "lon": -3.6344656348228455}, {"id": "1042", "name": "Ctra. De Alhama 3", "lat": 37.14132601772587, "lon": -3.6401090025901794}, {"id": "1044", "name": "Ctra. De Alhama 4", "lat": 37.14066105970868, "lon": -3.6438265442848206}, {"id": "1049", "name": "Ctra. De Cijuela 1 V", "lat": 37.20186, "lon": -3.77533}, {"id": "1050", "name": "Ctra. De Cogollos V", "lat": 37.25943, "lon": -3.59487}, {"id": "1051", "name": "Ctra. De Córdoba 1 V", "lat": 37.24972569157791, "lon": -3.7537917494773865}, {"id": "1053", "name": "Ctra. De Dílar 2 V", "lat": 37.09039, "lon": -3.60744}, {"id": "1054", "name": "Ctra. De Dílar 3 V", "lat": 37.08234, "lon": -3.60393}, {"id": "1055", "name": "Ctra. De Dílar 4 V", "lat": 37.07615, "lon": -3.60532}, {"id": "1057", "name": "Ctra. De Dúdar 1 V", "lat": 37.17741040637165, "lon": -3.501812689123792}, {"id": "1058", "name": "Ctra. De Gójar V", "lat": 37.11613638395452, "lon": -3.603193089365959}, {"id": "1059", "name": "Ctra. De Granada V", "lat": 37.23469898201313, "lon": -3.5671000779166206}, {"id": "1060", "name": "Ctra. De Granada 1 V", "lat": 37.15153174842472, "lon": -3.6141748577438193}, {"id": "1061", "name": "Ctra. De Granada 1 V", "lat": 37.26122519868117, "lon": -3.575988804893541}, {"id": "1062", "name": "Ctra. De Granada 2 V", "lat": 37.15014139740179, "lon": -3.615948200258572}, {"id": "1063", "name": "Acceso A Nívar V", "lat": 37.26363, "lon": -3.5789}, {"id": "1064", "name": "Ctra. De Granada 3 V", "lat": 37.14733870467315, "lon": -3.6213401108898324}, {"id": "1065", "name": "Ctra. De Güéjar Sierra 1 V", "lat": 37.1640668420016, "lon": -3.503706604242325}, {"id": "1066", "name": "Ctra. De Güéjar Sierra 2 V", "lat": 37.16428379553819, "lon": -3.500037342309952}, {"id": "1067", "name": "Ctra. De Güéjar Sierra 3 V", "lat": 37.16093109917521, "lon": -3.4564420580863953}, {"id": "1068", "name": "Ctra. De Güéjar Sierra 4 V", "lat": 37.160879263205935, "lon": -3.453877866268158}, {"id": "1069", "name": "Ctra. De Güéjar Sierra 5 V", "lat": 37.15903184880515, "lon": -3.442579060792923}, {"id": "1070", "name": "Ctra. De Huétor 1 V", "lat": 37.15235363299302, "lon": -3.5814430564641953}, {"id": "1071", "name": "Ctra. De Huétor 2 V", "lat": 37.15007736815595, "lon": -3.5786770284175873}, {"id": "1072", "name": "Ctra. De Huétor 3 V", "lat": 37.14864444594454, "lon": -3.5778388381004333}, {"id": "1073", "name": "Avda. De Juan Pablo Ii 1 V", "lat": 37.19403739949028, "lon": -3.6085528135299683}, {"id": "1074", "name": "Avda. De Juan Pablo Ii 2", "lat": 37.195620090445246, "lon": -3.6094607412815094}, {"id": "1075", "name": "Ctra. De La Sierra 1 V", "lat": 37.16231836613664, "lon": -3.549172729253769}, {"id": "1076", "name": "Ctra. De La Sierra 10 V", "lat": 37.165348782561644, "lon": -3.5811620950698853}, {"id": "1077", "name": "Ctra. De La Sierra 11 V", "lat": 37.16591573641656, "lon": -3.5831040143966675}, {"id": "1078", "name": "Ctra. De La Sierra 12 V", "lat": 37.16645436535696, "lon": -3.585055321455002}, {"id": "1079", "name": "Ctra. De La Sierra 13 V", "lat": 37.16702398265915, "lon": -3.586985170841217}, {"id": "1080", "name": "Ctra. De La Sierra 2 V", "lat": 37.161985980146994, "lon": -3.556228280067444}, {"id": "1081", "name": "Ctra. De La Sierra 3 V", "lat": 37.16272128867231, "lon": -3.55932354927063}, {"id": "1082", "name": "Ctra. De La Sierra 4 V", "lat": 37.163069702714225, "lon": -3.563191294670105}, {"id": "1083", "name": "Ctra. De La Sierra 5 V", "lat": 37.16305687768595, "lon": -3.567390963435173}, {"id": "1084", "name": "Ctra. De La Sierra 6 V", "lat": 37.16254868418856, "lon": -3.5695333778858185}, {"id": "1086", "name": "Ctra. De La Sierra 8 V", "lat": 37.16370347015129, "lon": -3.574271500110626}, {"id": "1087", "name": "Ctra. De La Sierra 9 V", "lat": 37.16462739309168, "lon": -3.5786937922239304}, {"id": "1088", "name": "Ctra. De La Zubia 1 V", "lat": 37.147985288872256, "lon": -3.5915530372342346}, {"id": "1090", "name": "Ctra. De La Zubia 2 V", "lat": 37.14544306817056, "lon": -3.5911957025200536}, {"id": "1091", "name": "Ctra. De La Zubia 3 V", "lat": 37.14104877457071, "lon": -3.590247809952416}, {"id": "1092", "name": "Ctra. De La Zubia 4 V", "lat": 37.138560808938344, "lon": -3.589222669470473}, {"id": "1093", "name": "Ctra. De La Zubia 5 V", "lat": 37.136479352022164, "lon": -3.5873786508955163}, {"id": "1094", "name": "Ctra. De Moclín 1 V", "lat": 37.321921777051905, "lon": -3.785290002806505}, {"id": "1095", "name": "Ctra. De Moclín 2 V", "lat": 37.32113970700972, "lon": -3.787000849843025}, {"id": "1096", "name": "Ctra. De Monachil 1 V", "lat": 37.1381, "lon": -3.56721}, {"id": "1097", "name": "Ctra. De Monachil 2 V", "lat": 37.13672, "lon": -3.56417}, {"id": "1098", "name": "Ctra. De Monachil 3 V", "lat": 37.136371833147784, "lon": -3.559768795967102}, {"id": "1099", "name": "Ctra. De Monachil 4 V", "lat": 37.137033621506085, "lon": -3.5585805773735046}, {"id": "1102", "name": "Ctra. De Monachil 5 V", "lat": 37.13657764032528, "lon": -3.557470142841339}, {"id": "1104", "name": "Ctra. De Monachil 6 V", "lat": 37.13592713320382, "lon": -3.5561209917068486}, {"id": "1105", "name": "Ctra. De Monachil 7 V", "lat": 37.1329120505026, "lon": -3.5464489459991455}, {"id": "1106", "name": "Ctra. De Monachil 7 V", "lat": 37.13373, "lon": -3.54905}, {"id": "1107", "name": "Ctra. De Motril 1 V", "lat": 37.127655786268456, "lon": -3.6303725838661194}, {"id": "1108", "name": "Ctra. De Motril 11 V", "lat": 37.00824, "lon": -3.58538}, {"id": "1111", "name": "Ctra. De Motril 2 V", "lat": 37.11508, "lon": -3.63472}, {"id": "1112", "name": "Ctra. De Motril 3 V", "lat": 37.10963, "lon": -3.63939}, {"id": "1113", "name": "Ctra. De Motril 4 V", "lat": 37.10704159933951, "lon": -3.641684693632483}, {"id": "1114", "name": "Ctra. De Motril 5 V", "lat": 37.10259102491947, "lon": -3.6449121683835983}, {"id": "1116", "name": "Ctra. De Motril 6 V", "lat": 37.09770864727059, "lon": -3.648214638233185}, {"id": "1117", "name": "Ctra. De Motril 7 V", "lat": 37.094895347810954, "lon": -3.6480242013931274}, {"id": "1118", "name": "Ctra. De Motril 9 V", "lat": 37.04655, "lon": -3.64682}, {"id": "1119", "name": "Ctra. De Motril 10 V", "lat": 37.02838, "lon": -3.63571}, {"id": "1121", "name": "Ctra. De Murcia 4 V", "lat": 37.18436836124002, "lon": -3.5941813447414006}, {"id": "1123", "name": "Ctra. De Ogíjares 1 V", "lat": 37.144246525371194, "lon": -3.602074742325385}, {"id": "1124", "name": "Ctra. De Ogíjares 2 V", "lat": 37.142200610365904, "lon": -3.602290660151084}, {"id": "1125", "name": "Ctra. De Pinos Genil V", "lat": 37.161601222835436, "lon": -3.5057437419891357}, {"id": "1127", "name": "Ctra. De Santa Fe 1 V", "lat": 37.19739, "lon": -3.64715}, {"id": "1128", "name": "Ctra. De Santa Fe 2 V", "lat": 37.19238096009364, "lon": -3.654775321483612}, {"id": "1129", "name": "Ctra. De Santa Fe 3 V", "lat": 37.19195469215767, "lon": -3.6673200130462646}, {"id": "1130", "name": "Ctra. De Ogíjares 3 V", "lat": 37.13876, "lon": -3.60241}, {"id": "1131", "name": "Ctra. De Ogíjares 4 V", "lat": 37.13443924973891, "lon": -3.602907836502709}, {"id": "1132", "name": "Ctra. De Santa Fe 5 V", "lat": 37.19302, "lon": -3.70055}, {"id": "1133", "name": "Ctra. De Santa Fe 6 V", "lat": 37.191954157985805, "lon": -3.7091202288866043}, {"id": "1135", "name": "Calvario V", "lat": 37.2046, "lon": -3.772}, {"id": "1139", "name": "Ctra. Vieja De Málaga 4 V", "lat": 37.18912, "lon": -3.62317}, {"id": "1140", "name": "Ctra. Vieja De Málaga 5 V", "lat": 37.18936, "lon": -3.62708}, {"id": "1141", "name": "Blq. San Cristóbal", "lat": 37.253574023661734, "lon": -3.7568145990371704}, {"id": "1142", "name": "Blq. San Cristóbal V", "lat": 37.25349823316592, "lon": -3.756834715604782}, {"id": "1144", "name": "Doctor Olóriz", "lat": 37.188463264204664, "lon": -3.6070990562438965}, {"id": "1145", "name": "Dúdar 1 V", "lat": 37.18563837999927, "lon": -3.4876549243927}, {"id": "1146", "name": "Acceso A Cijuela V", "lat": 37.19523336780752, "lon": -3.803619146347046}, {"id": "1147", "name": "Acceso Al Chaparral V", "lat": 37.25844908696275, "lon": -3.6574763059616093}, {"id": "1148", "name": "El Chaparral 1 V", "lat": 37.254874192406646, "lon": -3.656395375728607}, {"id": "1149", "name": "El Chaparral 2 V", "lat": 37.25707845021532, "lon": -3.657004237174988}, {"id": "1150", "name": "El Colmenar V", "lat": 37.22995, "lon": -3.50046}, {"id": "1151", "name": "El Fargue 1 V", "lat": 37.20053429834104, "lon": -3.5669465251627344}, {"id": "1152", "name": "El Fargue 2 V", "lat": 37.20298, "lon": -3.56419}, {"id": "1153", "name": "El Fargue 3 V", "lat": 37.2072140727615, "lon": -3.5578931779098184}, {"id": "1154", "name": "El Fargue 4 V", "lat": 37.20941, "lon": -3.55666}, {"id": "1155", "name": "El Pilar V", "lat": 37.07682, "lon": -3.6029}, {"id": "1156", "name": "El Serrallo V", "lat": 37.15804, "lon": -3.57917}, {"id": "1158", "name": "El Zahor V", "lat": 36.99941, "lon": -3.57758}, {"id": "1159", "name": "Embalse De Canales V", "lat": 37.1614131185481, "lon": -3.4799811244010925}, {"id": "1160", "name": "Enrique Ruiz Cabello", "lat": 37.22522306051134, "lon": -3.6883494705125486}, {"id": "1161", "name": "Pje. De Satajardas", "lat": 37.11580497136352, "lon": -3.5788744390174543}, {"id": "1162", "name": "Escóznar 1 V", "lat": 37.23810157464201, "lon": -3.8433413207530975}, {"id": "1163", "name": "Escóznar 2 V", "lat": 37.238759269075516, "lon": -3.846081867814064}, {"id": "1166", "name": "Estación De Autobuses 1 V", "lat": 37.2000565761075, "lon": -3.6134961247444153}, {"id": "1170", "name": "Ctra. Gr-3423 V", "lat": 37.33143458645407, "lon": -3.5975638031959534}, {"id": "1171", "name": "Laurel De La Reina V", "lat": 37.12136136792442, "lon": -3.585020855093717}, {"id": "1172", "name": "Plaza De Europa V", "lat": 37.19577894527604, "lon": -3.622184470295906}, {"id": "1173", "name": "Francisco Ayala 2 V", "lat": 37.192591422322494, "lon": -3.6164626479148865}, {"id": "1175", "name": "Francisco Ayala 3 V", "lat": 37.195075900625525, "lon": -3.619167923943678}, {"id": "1177", "name": "Francisco Pradilla V", "lat": 37.190400236063034, "lon": -3.614787608385086}, {"id": "1178", "name": "Fuente Chica", "lat": 37.24311827147246, "lon": -3.5636162906803293}, {"id": "1180", "name": "Fuente Grande", "lat": 37.24697879098673, "lon": -3.5553368479259007}, {"id": "1183", "name": "Goya 1 V", "lat": 37.12535064983347, "lon": -3.568513333702999}, {"id": "1184", "name": "Goya 2 V", "lat": 37.12697734232436, "lon": -3.5667834430933}, {"id": "1186", "name": "Avda. Fernando De Los Ríos 2 V", "lat": 37.15784540037416, "lon": -3.607710599899292}, {"id": "1191", "name": "Granada 1 V", "lat": 37.14932536797886, "lon": -3.5756126046180725}, {"id": "1192", "name": "Granada 1 V", "lat": 37.129608216701094, "lon": -3.60339492559433}, {"id": "1193", "name": "Granada 2 V", "lat": 37.14856427418697, "lon": -3.574056923389435}, {"id": "1194", "name": "Granada 2 V", "lat": 37.12697154423727, "lon": -3.6036452899544935}, {"id": "1196", "name": "Granada 3", "lat": 37.121545686309695, "lon": -3.605038940131635}, {"id": "1199", "name": "Güéjar Sierra 1 V", "lat": 37.15890091954544, "lon": -3.4409093856811523}, {"id": "1201", "name": "La Habana V", "lat": 37.14720347925816, "lon": -3.631338983823298}, {"id": "1202", "name": "I.E.S. Blas Infante V", "lat": 37.118252193013554, "lon": -3.603962481038252}, {"id": "1205", "name": "I.E.S. Trevenque V", "lat": 37.12443780154929, "lon": -3.5715725272893906}, {"id": "1209", "name": "Iglesia Chauchina V", "lat": 37.201616174427045, "lon": -3.7709230184555054}, {"id": "1210", "name": "Iglesia El Jau V", "lat": 37.19574, "lon": -3.74083}, {"id": "1213", "name": "Iglesia Gabia Grande V", "lat": 37.1358740447718, "lon": -3.6677341461836477}, {"id": "1214", "name": "Iglesia Sierra Elvira V", "lat": 37.22839404215704, "lon": -3.7225614488124847}, {"id": "1215", "name": "Íllora 1 V", "lat": 37.28377260055773, "lon": -3.881016969680786}, {"id": "1216", "name": "Íllora 2 V", "lat": 37.28474573766445, "lon": -3.882073760032654}, {"id": "1217", "name": "Instituto V", "lat": 37.14262, "lon": -3.61458}, {"id": "1219", "name": "Isla V", "lat": 37.220952516232344, "lon": -3.7792713940143585}, {"id": "1220", "name": "Jacobo Camarero V", "lat": 37.22811800813727, "lon": -3.653621703369936}, {"id": "1223", "name": "La Colorá V", "lat": 37.21421, "lon": -3.60927}, {"id": "1226", "name": "La Joya 1 V", "lat": 37.22750987546467, "lon": -3.6225606501102448}, {"id": "1227", "name": "La Joya 2 V", "lat": 37.22915, "lon": -3.62062}, {"id": "1228", "name": "La Molaina V", "lat": 37.24288414217866, "lon": -3.738619163632393}, {"id": "1229", "name": "La Terrona V", "lat": 37.200771645248565, "lon": -3.6246020794078504}, {"id": "1230", "name": "Lancha Del Genil V", "lat": 37.16255669988539, "lon": -3.5506224632263184}, {"id": "1232", "name": "Las Mimbres V", "lat": 37.207611198089445, "lon": -3.639454010929626}, {"id": "1233", "name": "Las Pedrizas 1 V", "lat": 37.12167, "lon": -3.63135}, {"id": "1236", "name": "Libertad 4", "lat": 37.12889, "lon": -3.55855}, {"id": "1237", "name": "Libertad 5", "lat": 37.13085, "lon": -3.55853}, {"id": "1239", "name": "Libreros V", "lat": 37.124426751089366, "lon": -3.5700851689259183}, {"id": "1244", "name": "Los Llanos V", "lat": 37.22387, "lon": -3.51114}, {"id": "1245", "name": "Los Pastoreros V", "lat": 37.218679919979586, "lon": -3.7784117460250854}, {"id": "1246", "name": "Los Pinillos V", "lat": 37.15804746897771, "lon": -3.527238965034485}, {"id": "1247", "name": "Los Sifones V", "lat": 37.22186, "lon": -3.51423}, {"id": "1253", "name": "Madrid 2 V", "lat": 37.1348584649945, "lon": -3.558392822742462}, {"id": "1260", "name": "Maestro Noguerol V", "lat": 37.1307437253633, "lon": -3.5623759031295776}, {"id": "1262", "name": "Mallorca 2 V", "lat": 37.149010028081534, "lon": -3.668433129787445}, {"id": "1263", "name": "Manuel De Góngora 1 V", "lat": 37.16597761482715, "lon": -3.594690620907386}, {"id": "1264", "name": "Marchena V", "lat": 37.00573, "lon": -3.58252}, {"id": "1267", "name": "Mercagranada 1 V", "lat": 37.2044425972047, "lon": -3.657170534133911}, {"id": "1268", "name": "Mercagranada 2 V", "lat": 37.20525653606203, "lon": -3.666025847196579}, {"id": "1269", "name": "Moclín V", "lat": 37.34040902185581, "lon": -3.788200467824936}, {"id": "1272", "name": "Monteluz 1 V", "lat": 37.2382487, "lon": -3.6442318}, {"id": "1275", "name": "G. Morcillo", "lat": 37.21926687151643, "lon": -3.572094887495041}, {"id": "1276", "name": "López Mezquita", "lat": 37.21678, "lon": -3.5753}, {"id": "1278", "name": "Motril 2 V", "lat": 37.22333935119534, "lon": -3.646828774322795}, {"id": "1279", "name": "Motril 3 V", "lat": 37.22485103937318, "lon": -3.648255675571293}, {"id": "1280", "name": "Motril 4 V", "lat": 37.22648719773753, "lon": -3.6500970124870946}, {"id": "1287", "name": "Nuevas De Jardines V", "lat": 37.23070638803924, "lon": -3.6557261645793915}, {"id": "1289", "name": "Ctra. De Íllora", "lat": 37.25063735306156, "lon": -3.858097493648529}, {"id": "1290", "name": "Mulhacén 1 V", "lat": 37.10872775240745, "lon": -3.590823009626547}, {"id": "1291", "name": "Mulhacén 2 V", "lat": 37.110364207516355, "lon": -3.590922117282389}, {"id": "1292", "name": "Mulhacén 3 V", "lat": 37.11245878853185, "lon": -3.591397807026624}, {"id": "1295", "name": "Palacio De Deportes V", "lat": 37.15537258455577, "lon": -3.593469142979302}, {"id": "1296", "name": "Parque De La Encina V", "lat": 37.119854115758976, "lon": -3.5843979120909353}, {"id": "1302", "name": "Paseo Carlos Cano V", "lat": 37.14878180669158, "lon": -3.673100173473358}, {"id": "1304", "name": "Paseo De La Bomba V", "lat": 37.16843678603053, "lon": -3.5896244645118713}, {"id": "1305", "name": "Paseo De La Redonda 1", "lat": 37.22973511532894, "lon": -3.683116078409512}, {"id": "1306", "name": "Paseo De La Redonda 2", "lat": 37.22750699229872, "lon": -3.679498314841112}, {"id": "1307", "name": "Paseo De La Redonda 3", "lat": 37.22499175893171, "lon": -3.679029464819905}, {"id": "1308", "name": "Paseo De Los Leñadores 1 V", "lat": 37.13825, "lon": -3.57026}, {"id": "1310", "name": "Paseo De Recoletos V", "lat": 37.13868111794564, "lon": -3.6219430714845657}, {"id": "1311", "name": "Caleta 1", "lat": 37.16840686308617, "lon": -3.6915376782417297}, {"id": "1312", "name": "Caleta 1 V", "lat": 37.16826152290209, "lon": -3.6913955211639404}, {"id": "1313", "name": "Pedro Ruíz V", "lat": 37.22251595434907, "lon": -3.750358521938324}, {"id": "1315", "name": "Peñón De La Mata 1 V", "lat": 37.27363580341414, "lon": -3.569032927891044}, {"id": "1316", "name": "Peñón De La Mata 2 V", "lat": 37.27601, "lon": -3.57239}, {"id": "1320", "name": "Plaza De Asegra V", "lat": 37.22770155257822, "lon": -3.6292997002601624}, {"id": "1321", "name": "Plaza Baja V", "lat": 37.12388711093961, "lon": -3.6046206951141357}, {"id": "1322", "name": "Plaza Canales", "lat": 37.14941515943793, "lon": -3.5656146705150604}, {"id": "1325", "name": "Plaza De La Constitución", "lat": 37.09114625716926, "lon": -3.6344633810537945}, {"id": "1326", "name": "Plaza De España", "lat": 36.98771, "lon": -3.56654}, {"id": "1327", "name": "Plaza De La Fortaleza V", "lat": 37.22023, "lon": -3.51647}, {"id": "1328", "name": "Plaza Del Retiro V", "lat": 37.13432442216844, "lon": -3.568587899208069}, {"id": "1330", "name": "Plaza Estación De Tranvías V", "lat": 37.13643747768953, "lon": -3.6663887501254067}, {"id": "1333", "name": "Plaza Fontiveros V", "lat": 37.160979194372636, "lon": -3.5948821306556056}, {"id": "1335", "name": "Plaza Miraflores V", "lat": 37.132338968636645, "lon": -3.5405896604061127}, {"id": "1336", "name": "Plaza Mundo Nuevo V", "lat": 37.14353, "lon": -3.56608}, {"id": "1340", "name": "Pol. Ind. El Rey", "lat": 37.21225, "lon": -3.68478}, {"id": "1341", "name": "Avda. Serrezuela V", "lat": 37.08777, "lon": -3.7532}, {"id": "1342", "name": "Pol. Ind. La Fuente V", "lat": 37.2167554216816, "lon": -3.725510537624359}, {"id": "1344", "name": "Polideportivo V", "lat": 37.2332753, "lon": -3.6501214}, {"id": "1345", "name": "Polideportivo V", "lat": 37.138484403839016, "lon": -3.6199206858873367}, {"id": "1347", "name": "Polideportivo V", "lat": 37.214946220352886, "lon": -3.772268146276474}, {"id": "1349", "name": "Polideportivo", "lat": 37.09005152134844, "lon": -3.631426692008972}, {"id": "1351", "name": "Prieto Moreno 2 V", "lat": 37.115201174299294, "lon": -3.5845886170864105}, {"id": "1355", "name": "Primero De Mayo V", "lat": 37.1171175663441, "lon": -3.583241343530972}, {"id": "1358", "name": "Progreso V", "lat": 37.13715, "lon": -3.66253}, {"id": "1359", "name": "Río V", "lat": 37.220839166212365, "lon": -3.481302652778595}, {"id": "1360", "name": "Puente V", "lat": 37.22099, "lon": -3.51877}, {"id": "1361", "name": "Puente V", "lat": 37.25072915911018, "lon": -3.745952993631363}, {"id": "1362", "name": "Puente De Dúrcal V", "lat": 36.99866, "lon": -3.57444}, {"id": "1364", "name": "Puerto Guerra V", "lat": 37.39742329031546, "lon": -3.7162676453590393}, {"id": "1366", "name": "Real 1 V", "lat": 37.25168564338132, "lon": -3.7473799288272858}, {"id": "1367", "name": "Quéntar 2", "lat": 37.19226, "lon": -3.46785}, {"id": "1368", "name": "Quéntar 1", "lat": 37.19213951539282, "lon": -3.466315269470215}, {"id": "1369", "name": "Real V", "lat": 37.196982150258414, "lon": -3.8106223940849304}, {"id": "1370", "name": "Real 2 V", "lat": 37.2358259769977, "lon": -3.826471567153931}, {"id": "1371", "name": "Real 1 V", "lat": 37.19676849544217, "lon": -3.830716162919998}, {"id": "1372", "name": "Real 2 V", "lat": 37.25139688462141, "lon": -3.750525489449501}, {"id": "1373", "name": "Real 2 V", "lat": 37.19624503858691, "lon": -3.833574056625366}, {"id": "1374", "name": "Real 3 V", "lat": 37.25173581577018, "lon": -3.75245600938797}, {"id": "1376", "name": "Real De Málaga 1 V", "lat": 37.13441487293677, "lon": -3.6696001589461957}, {"id": "1377", "name": "Real De Málaga 2 V", "lat": 37.13308461572331, "lon": -3.6716114133514566}, {"id": "1378", "name": "Real De Málaga 4", "lat": 37.12974826988569, "lon": -3.6767761409385002}, {"id": "1379", "name": "Rebites 1 V", "lat": 37.1543948, "lon": -3.5717782}, {"id": "1381", "name": "Rebites 3 V", "lat": 37.1526, "lon": -3.56812}, {"id": "1382", "name": "Rebites 4", "lat": 37.15162, "lon": -3.56624}, {"id": "1384", "name": "Residencia V", "lat": 37.140073091656554, "lon": -3.6182280072827098}, {"id": "1385", "name": "Residencia V", "lat": 37.28161574702586, "lon": -3.570492939972837}, {"id": "1386", "name": "Residencia V", "lat": 37.2699653957905, "lon": -3.6834293603897095}, {"id": "1388", "name": "Río Aguas Blancas V", "lat": 37.1631851278709, "lon": -3.518224060535431}, {"id": "1389", "name": "Río Monachil V", "lat": 37.15476611031402, "lon": -3.610585927963257}, {"id": "1391", "name": "Río Monachil V", "lat": 37.140808591091655, "lon": -3.5695454478263855}, {"id": "1392", "name": "Romilla V", "lat": 37.20188, "lon": -3.79344}, {"id": "1394", "name": "San Cayetano 1 V", "lat": 37.14571470094154, "lon": -3.6332296729005975}, {"id": "1395", "name": "San Cayetano 2 V", "lat": 37.14284993120603, "lon": -3.632407732905108}, {"id": "1397", "name": "San José V", "lat": 36.99111, "lon": -3.5696}, {"id": "1399", "name": "San Miguel 3 V", "lat": 37.142174846315605, "lon": -3.6196169257164}, {"id": "1400", "name": "San Ramón 1 V", "lat": 37.143120947561414, "lon": -3.639729470014572}, {"id": "1401", "name": "San Ramón 2 V", "lat": 37.145263796401835, "lon": -3.643396720290184}, {"id": "1402", "name": "San Ramón 3 V", "lat": 37.14599, "lon": -3.64632}, {"id": "1403", "name": "San Ramón 4 V", "lat": 37.146712817421644, "lon": -3.651018887758255}, {"id": "1404", "name": "San Ramón 5 V", "lat": 37.14729434221187, "lon": -3.653576374053955}, {"id": "1410", "name": "Sierra Elvira V", "lat": 37.231545670366685, "lon": -3.726135492324829}, {"id": "1411", "name": "Sotanillas V", "lat": 37.2186045263488, "lon": -3.5213965914249457}, {"id": "1412", "name": "Tierno Galván V", "lat": 37.1408855638729, "lon": -3.6276715993881226}, {"id": "1413", "name": "Tocón 1 V", "lat": 37.2380819291421, "lon": -3.963610768350918}, {"id": "1417", "name": "Urb. Bojaira V", "lat": 37.133135508486866, "lon": -3.566814959049225}, {"id": "1418", "name": "Urb. Caserío De Millán V", "lat": 37.13156079311863, "lon": -3.5665231483664477}, {"id": "1419", "name": "Urb. Cortijo Del Aire 1 V", "lat": 37.24932, "lon": -3.65146}, {"id": "1420", "name": "Urb. Cortijo Del Aire 2 V", "lat": 37.24997437947068, "lon": -3.6532769864506918}, {"id": "1424", "name": "Urb. El Puntal V", "lat": 37.03734, "lon": -3.63997}, {"id": "1426", "name": "Urb. Llanos De Silva 1 V", "lat": 37.285339537183994, "lon": -3.676658123731613}, {"id": "1428", "name": "Urb. Loma Verde 2 V", "lat": 37.24560455281633, "lon": -3.652941861025056}, {"id": "1429", "name": "Urb. Loma Verde 3 V", "lat": 37.24674, "lon": -3.6505}, {"id": "1431", "name": "Urb. Los Ángeles V", "lat": 37.08905875543382, "lon": -3.6246541142463684}, {"id": "1432", "name": "Urb. Los Cerezos 2 V", "lat": 37.10969, "lon": -3.6022}, {"id": "1433", "name": "Urb. Los Cerezos 3 V", "lat": 37.11427910723083, "lon": -3.6027203500270844}, {"id": "1436", "name": "Urb. Los Chopos V", "lat": 37.139085, "lon": -3.651482}, {"id": "1437", "name": "Urb. Los Olivos V", "lat": 37.23686, "lon": -3.60814}, {"id": "1438", "name": "Urb. Molino Alto 1 V", "lat": 37.08632858211433, "lon": -3.6182624101638794}, {"id": "1440", "name": "Urb. Monte Oliva V", "lat": 37.08725214077724, "lon": -3.641196355255967}, {"id": "1442", "name": "Urb. Santa Marta V", "lat": 37.09494, "lon": -3.60539}, {"id": "1444", "name": "Urb. Villas Blancas 1 V", "lat": 37.25151291999493, "lon": -3.656998414692339}, {"id": "1445", "name": "Urb. Villas Blancas 2 V", "lat": 37.25387, "lon": -3.65622}, {"id": "1446", "name": "Urb. Viña Del Rey V", "lat": 37.08910582652518, "lon": -3.6480242013931274}, {"id": "1457", "name": "Zujaira 1 V", "lat": 37.255949109719865, "lon": -3.7989038228988647}, {"id": "1458", "name": "Zujaira 2 V", "lat": 37.25505085563996, "lon": -3.8045022636651993}, {"id": "1459", "name": "Plaza Constitución", "lat": 37.23051898975517, "lon": -3.656458407640457}, {"id": "1460", "name": "Embalse De Cubillas", "lat": 37.271139349472804, "lon": -3.6820976436138153}, {"id": "1461", "name": "Plaza Constitución V", "lat": 37.23043, "lon": -3.65658}, {"id": "1462", "name": "Embalse De Cubillas V", "lat": 37.273450917488404, "lon": -3.6829492449760437}, {"id": "1463", "name": "San Miguel 1", "lat": 37.1457443121663, "lon": -3.62262099981308}, {"id": "1465", "name": "Ctra. De Dúdar 2", "lat": 37.18288711473153, "lon": -3.492840975522995}, {"id": "1466", "name": "Dúdar 2", "lat": 37.18623, "lon": -3.48355}, {"id": "1467", "name": "Ctra. De Dúdar 2 V", "lat": 37.18343, "lon": -3.49247}, {"id": "1468", "name": "Dúdar 2 V", "lat": 37.18631362668123, "lon": -3.4834425151348114}, {"id": "1476", "name": "Estrella", "lat": 37.23018, "lon": -3.62429}, {"id": "1477", "name": "Estación De Autobuses.", "lat": 37.19937, "lon": -3.61398}, {"id": "1478", "name": "Ciencias Educación", "lat": 37.19263, "lon": -3.59984}, {"id": "1482", "name": "Empresariales", "lat": 37.192265917939686, "lon": -3.5952387330079927}, {"id": "1484", "name": "Colegio Loyola", "lat": 37.19055, "lon": -3.5982}, {"id": "1485", "name": "Teología", "lat": 37.1953, "lon": -3.59844}, {"id": "1486", "name": "Centros Sociales", "lat": 37.13738215392016, "lon": -3.6225861310958862}, {"id": "1494", "name": "Río Dílar", "lat": 37.1428981914475, "lon": -3.6585486516662513}, {"id": "1495", "name": "Río Dílar V", "lat": 37.14283956978323, "lon": -3.658465703171032}, {"id": "1499", "name": "Avda. De La Estación 3", "lat": 37.22045300925634, "lon": -3.694587774234524}, {"id": "1500", "name": "La Malahá", "lat": 37.10163106541062, "lon": -3.722152682209071}, {"id": "1501", "name": "La Malahá V", "lat": 37.10155, "lon": -3.72203}, {"id": "1502", "name": "Escúzar 1", "lat": 37.06307878316481, "lon": -3.762908822541931}, {"id": "1503", "name": "Escúzar 1 V", "lat": 37.06302, "lon": -3.76322}, {"id": "1507", "name": "Ctra. De Cacín", "lat": 37.069458808770406, "lon": -3.8180301189913735}, {"id": "1508", "name": "Ctra. De Cacín V", "lat": 37.06937555692814, "lon": -3.818129360683997}, {"id": "1509", "name": "Ayuntamiento", "lat": 37.06684, "lon": -3.82088}, {"id": "1510", "name": "Ayuntamiento V", "lat": 37.06651365667331, "lon": -3.82069106702631}, {"id": "1511", "name": "Ácula 1", "lat": 37.08523, "lon": -3.80676}, {"id": "1514", "name": "Deifontes 1", "lat": 37.32887739478109, "lon": -3.5952436923980713}, {"id": "1515", "name": "Deifontes 1 V", "lat": 37.32895417578183, "lon": -3.5950613021850586}, {"id": "1516", "name": "Deifontes 2", "lat": 37.32563, "lon": -3.59451}, {"id": "1517", "name": "Canario", "lat": 37.1211533806733, "lon": -3.5733193159103394}, {"id": "1521", "name": "Plaza Mayor V", "lat": 37.17003, "lon": -3.66425}, {"id": "1524", "name": "Cno. Bajo De Armilla", "lat": 37.147761482968306, "lon": -3.622029572725296}, {"id": "1530", "name": "Ctra. De Alhama 3 V", "lat": 37.1411891779685, "lon": -3.640041947364807}, {"id": "1531", "name": "Ctra. De Alhama 4 V", "lat": 37.14050283732603, "lon": -3.643738031387329}, {"id": "1532", "name": "Ctra. De Alhama 5", "lat": 37.14018639156791, "lon": -3.6463022232055664}, {"id": "1533", "name": "Ctra. De Alhama 5 V", "lat": 37.14003672081579, "lon": -3.6462485790252686}, {"id": "1534", "name": "Avda. De América", "lat": 37.1888607053941, "lon": -3.72523695230484}, {"id": "1535", "name": "Suspiro Del Moro", "lat": 37.070210853362184, "lon": -3.651551306247711}, {"id": "1536", "name": "Suspiro Del Moro V", "lat": 37.0704, "lon": -3.65124}, {"id": "1538", "name": "Laurel De La Reina 3 V", "lat": 37.127342708413344, "lon": -3.585820555654209}, {"id": "1541", "name": "Ctra. De La Zubia 6 V", "lat": 37.128962973085486, "lon": -3.5856027370186894}, {"id": "1542", "name": "Cno. De La Zubia", "lat": 37.16363442932831, "lon": -3.5966867208480835}, {"id": "1543", "name": "Paseo De Los Basilios V", "lat": 37.16786824806135, "lon": -3.5961556434631348}, {"id": "1544", "name": "Pinos V", "lat": 37.12225052034625, "lon": -3.573419898748398}, {"id": "1547", "name": "Medina Elvira", "lat": 37.27195, "lon": -3.68693}, {"id": "1548", "name": "Medina Elvira V", "lat": 37.27224, "lon": -3.68707}, {"id": "1549", "name": "Urb. Los Cortijos 1", "lat": 37.27332, "lon": -3.69421}, {"id": "1550", "name": "Urb. Los Cortijos 1 V", "lat": 37.27331, "lon": -3.69431}, {"id": "1551", "name": "Urb. Los Cortijos 3", "lat": 37.28209401848605, "lon": -3.6992983217222783}, {"id": "1552", "name": "Caparacena", "lat": 37.26522, "lon": -3.71354}, {"id": "1553", "name": "Caserío De Fonseca", "lat": 37.23463790732634, "lon": -3.639999032020569}, {"id": "1556", "name": "D.G. Tráfico", "lat": 37.15211, "lon": -3.56443}, {"id": "1559", "name": "Neptuno- V", "lat": 37.16731466750784, "lon": -3.6093319952487946}, {"id": "1560", "name": "Neptuno", "lat": 37.1686227354907, "lon": -3.6079198122024536}, {"id": "1563", "name": "Agrón", "lat": 37.03092, "lon": -3.83059}, {"id": "1564", "name": "Ctra. De Íllora V", "lat": 37.250434525348304, "lon": -3.8588082790374756}, {"id": "1571", "name": "Avda. De La Estación 2 V", "lat": 37.2216625234633, "lon": -3.6932366028336183}, {"id": "1572", "name": "Avda. De La Estación 3 V", "lat": 37.22038508715646, "lon": -3.694443441379976}, {"id": "1574", "name": "Las Torres", "lat": 37.329195182302264, "lon": -3.69452565908432}, {"id": "1575", "name": "Las Torres V", "lat": 37.32889872284473, "lon": -3.694297671318054}, {"id": "1576", "name": "Barrio Alto V", "lat": 37.33126, "lon": -3.76162}, {"id": "1577", "name": "Avda. De Pinos Puente", "lat": 37.330094364421576, "lon": -3.7677864433317154}, {"id": "1578", "name": "Avda. De Pinos Puente V", "lat": 37.33000222861603, "lon": -3.767859935760498}, {"id": "1580", "name": "Granada", "lat": 37.234112577669826, "lon": -3.816450834274292}, {"id": "1581", "name": "Granada V", "lat": 37.234137135845096, "lon": -3.8168317079544067}, {"id": "1582", "name": "Real 1", "lat": 37.234873423939064, "lon": -3.8210749626159672}, {"id": "1583", "name": "Real 1 V", "lat": 37.23474550890876, "lon": -3.8211232423782353}, {"id": "1584", "name": "Cruz De San Antón 1", "lat": 37.11687, "lon": -3.58182}, {"id": "1585", "name": "Cruz De San Antón 2", "lat": 37.11722397173545, "lon": -3.5833199322223663}, {"id": "1591", "name": "Cno. De Gabia 4", "lat": 37.11913603508844, "lon": -3.626333177089691}, {"id": "1592", "name": "Cno. De Gabia 4 V", "lat": 37.11964028943807, "lon": -3.6272865383690926}, {"id": "1593", "name": "Cno. De Gabia 5", "lat": 37.12168915319034, "lon": -3.6290943577951316}, {"id": "1594", "name": "Cno. De Gabia 5 V", "lat": 37.121582240764965, "lon": -3.62926697470108}, {"id": "1595", "name": "Cno. De Gabia 6", "lat": 37.12338934733924, "lon": -3.6303068697452545}, {"id": "1596", "name": "Glorieta Mariana Pineda", "lat": 37.21818288722605, "lon": -3.5783830583341114}, {"id": "1597", "name": "Glolrieta Mariana Pineda V", "lat": 37.218383238605895, "lon": -3.5784568190410937}, {"id": "1601", "name": "Gran Via 54", "lat": 37.182054770464035, "lon": -3.60089510679245}, {"id": "1602", "name": "Constitución 4", "lat": 37.1838510840891, "lon": -3.6034630537687917}, {"id": "1605", "name": "Tierno Galván", "lat": 37.16562119881061, "lon": -3.5977123975999348}, {"id": "1606", "name": "Ctra. Vieja De Málaga 1 V", "lat": 37.18833730781667, "lon": -3.615569880449357}, {"id": "1613", "name": "Avda. Del Sur V", "lat": 37.187526686779506, "lon": -3.612651691292113},