[{"id": "1_2106", "name": "Rtda Entrada Av De La Constitución", "lat": 37.42617485935401, "lon": -6.161530160843313}, {"id": "1_2107", "name": "Sor María De La Eucaristía", "lat": 37.42346851797207, "lon": -6.163737773895264}, {"id": "1_2108", "name": "Casa De La Cultura Albaida", "lat": 37.424724212351634, "lon": -6.163258999586105}, {"id": "1_2109", "name": "Av De La Constitucion Lava Coches", "lat": 37.35166389, "lon": -5.844844444}, {"id": "1_2110", "name": "C Mariana Pineda A-92", "lat": 37.35118857058315, "lon": -5.842858403921127}, {"id": "1_2111", "name": "C Santa Lucia N 56", "lat": 37.33252440566026, "lon": -5.834931135177612}, {"id": "1_2112", "name": "C Atilano De Acevedo (Dia)", "lat": 37.34671389, "lon": -5.843033333}, {"id": "1_2114", "name": "C Silos Joyeria", "lat": 37.344475, "lon": -5.846418}, {"id": "1_2115", "name": "Bar Titi C Cantillana", "lat": 37.34401389, "lon": -5.842375}, {"id": "1_2116", "name": "C Malasmananas Veterinario", "lat": 37.34381941852548, "lon": -5.840952694416046}, {"id": "1_2118", "name": "Puerta Alcala C 28 De Febrero", "lat": 37.34285, "lon": -5.828672222}, {"id": "1_2119", "name": "C Silos Imprenta", "lat": 37.341072, "lon": -5.848536}, {"id": "1_2120", "name": "Duquesa De Talavera Inem", "lat": 37.337286580804346, "lon": -5.852400362491608}, {"id": "1_2121", "name": "Pisos De San Francisco (I)", "lat": 37.33296054218503, "lon": -5.848865211009979}, {"id": "1_2122", "name": "Pisos De San Francisco", "lat": 37.33293388354591, "lon": -5.847330987453461}, {"id": "1_2123", "name": "C 28 De Febrero (Instituto)", "lat": 37.34100355473035, "lon": -5.831281989812851}, {"id": "1_2124", "name": "Rtda Rafael Beca Mateos (V)", "lat": 37.3398381549913, "lon": -5.835498422384262}, {"id": "1_2125", "name": "Rtda Rafael Beca Mateos", "lat": 37.33976671635865, "lon": -5.835273116827011}, {"id": "1_2126", "name": "Antonio Mairena", "lat": 37.339452172317095, "lon": -5.8371493220329285}, {"id": "1_2127", "name": "Cruz Del Ingles (I)", "lat": 37.33728018310026, "lon": -5.840684473514557}, {"id": "1_2128", "name": "Cruz Del Ingles", "lat": 37.338089488338646, "lon": -5.840125232934952}, {"id": "1_2130", "name": "C Rafael Beca (V)", "lat": 37.33715556, "lon": -5.832844444}, {"id": "1_2131", "name": "Puente Romano (I)", "lat": 37.33214265082936, "lon": -5.8521924912929535}, {"id": "1_2132", "name": "Puente Romano", "lat": 37.33203601505512, "lon": -5.852000713348389}, {"id": "1_2133", "name": "Cuartel Guardia Civil A-92", "lat": 37.34920029278816, "lon": -5.837793052196503}, {"id": "1_2134", "name": "C Ciudad Real", "lat": 37.33351610607153, "lon": -5.83086222410202}, {"id": "1_2136", "name": "Venta La Liebre Antes De Autovia A-8033", "lat": 37.35584875, "lon": -5.86826240333333}, {"id": "1_2137", "name": "Venta La Liebre A-92", "lat": 37.357359892094806, "lon": -5.868230760097504}, {"id": "1_2138", "name": "Maices Del Sur A-392 (Frente)", "lat": 37.309983210489115, "lon": -5.884352248763476}, {"id": "1_2139", "name": "Maices Del Sur A-392", "lat": 37.30907754120057, "lon": -5.8850888372005015}, {"id": "1_2140", "name": "Pasarela Metasola A-376", "lat": 37.31290085, "lon": -5.89289685333333}, {"id": "1_2141", "name": "Pasarela Artesema A-376", "lat": 37.312473516666664, "lon": -5.8932673}, {"id": "1_2142", "name": "Itv A-392 (V)", "lat": 37.30603085042788, "lon": -5.890657069114036}, {"id": "1_2143", "name": "Itv A-392", "lat": 37.30650481623342, "lon": -5.889798810802657}, {"id": "1_2146", "name": "Bda Campo De Las Beatas (Frente)", "lat": 37.327811324589966, "lon": -5.8520060777664185}, {"id": "1_2147", "name": "Bda Campo De Las Beatas", "lat": 37.32781434087681, "lon": -5.852175056934357}, {"id": "1_2148", "name": "Venta El Cordobes A-392 (V)", "lat": 37.32258911905102, "lon": -5.871065562085854}, {"id": "1_2149", "name": "Venta El Cordobes A-392 (I)", "lat": 37.32440648590511, "lon": -5.869284455522937}, {"id": "1_2150", "name": "Cepsa Entrada Desde Ctra Dos Hermanas (I)", "lat": 37.33063023671824, "lon": -5.857545562274378}, {"id": "1_2151", "name": "Cepsa Entrada Desde Ctra Dos Hermanas (V)", "lat": 37.330519288346245, "lon": -5.857180710976564}, {"id": "1_2152", "name": "Venta Carmelilla A-392 (I)", "lat": 37.32759769988356, "lon": -5.862757712602615}, {"id": "1_2153", "name": "Venta Carmelilla A-392 -Frente- (V)", "lat": 37.3280487948223, "lon": -5.862159579992294}, {"id": "1_2154", "name": "Venta De Los Pinares Se-3204 (V)", "lat": 37.31896132233378, "lon": -5.855879187583923}, {"id": "1_2155", "name": "Venta De Los Pinares Se-3204 -Frente- (I)", "lat": 37.31886959948853, "lon": -5.855745077133179}, {"id": "1_2156", "name": "Blanca Paloma A-8033", "lat": 37.34066111, "lon": -5.854530556}, {"id": "1_2157", "name": "Poligono Fridex A-92 (Gasolinera)", "lat": 37.379273629955335, "lon": -5.895566493272781}, {"id": "1_2158", "name": "Poligono Fridex A-92 (Cuñado)", "lat": 37.37840336666667, "lon": -5.89560029166667}, {"id": "1_2159", "name": "Mutua", "lat": 37.37384722, "lon": -5.884088889}, {"id": "1_2160", "name": "Puleva  A-92", "lat": 37.37160881296974, "lon": -5.882038772106171}, {"id": "1_2161", "name": "Goya A-92", "lat": 37.37092685, "lon": -5.88213651666667}, {"id": "1_2162", "name": "Desguace Gallego A-92", "lat": 37.36593856117784, "lon": -5.876784324645996}, {"id": "1_2163", "name": "Poligono Hacienda Dolores A-92", "lat": 37.36594921994788, "lon": -5.877610445022583}, {"id": "1_2164", "name": "Rocca A-8033", "lat": 37.35309718333333, "lon": -5.86737910666667}, {"id": "1_2165", "name": "Oxigeno A-8033", "lat": 37.34655556, "lon": -5.862727778}, {"id": "1_2166", "name": "Cc Los Alcores", "lat": 37.35453920591768, "lon": -5.8572739362716675}, {"id": "1_2167", "name": "Hospital Del Tomillar (V)", "lat": 37.299087066666665, "lon": -5.900790605}, {"id": "1_2168", "name": "Hospital Del Tomillar", "lat": 37.29894467192459, "lon": -5.901089316697608}, {"id": "1_2169", "name": "Poligono La Red A-92 (Gruas Lozano)", "lat": 37.373000730318196, "lon": -5.884087979793549}, {"id": "1_2171", "name": "Cementerio Alcalá G. (I)", "lat": 37.34852650520382, "lon": -5.834260582923889}, {"id": "1_2172", "name": "Montecarmelo", "lat": 37.34650278, "lon": -5.827419444}, {"id": "1_2175", "name": "Flex A-92", "lat": 37.352424154757756, "lon": -5.844324231147766}, {"id": "1_2176", "name": "Urb San Antonio", "lat": 37.305818217498796, "lon": -5.861487686634064}, {"id": "1_2177", "name": "Urb San Antonio (Frente)", "lat": 37.3059163566443, "lon": -5.861334800720215}, {"id": "1_2178", "name": "Urb La Galvana (V)", "lat": 37.290264416666666, "lon": -5.86321547}, {"id": "1_2179", "name": "Urb La Galvana", "lat": 37.2900093, "lon": -5.86373184833333}, {"id": "1_2180", "name": "Plaza Director Ricardo Carmona", "lat": 37.38408612081888, "lon": -5.874804854393005}, {"id": "1_2181", "name": "Av Los Azahares (I)", "lat": 37.38117692388949, "lon": -5.874708294868469}, {"id": "1_2182", "name": "Av Los Azahares (V)", "lat": 37.3811045, "lon": -5.87478308666667}, {"id": "1_2183", "name": "Urb Santa Genoveva", "lat": 37.373951696965065, "lon": -5.843967604848214}, {"id": "1_2184", "name": "Torrequinto (V)", "lat": 37.325922883333334, "lon": -5.903285275}, {"id": "1_2185", "name": "Torrequinto", "lat": 37.32608285, "lon": -5.90278694166667}, {"id": "1_2186", "name": "Club De Golf", "lat": 37.349073414347615, "lon": -5.922476713200481}, {"id": "1_2188", "name": "Av Antonio Machado", "lat": 37.51504142122795, "lon": -5.983166056163946}, {"id": "1_2190", "name": "Av De Andalucia Correos", "lat": 37.515820282720156, "lon": -5.98092645406723}, {"id": "1_2192", "name": "Urb Santa Iglesia (V)", "lat": 37.31356228239434, "lon": -6.0909077525138855}, {"id": "1_2193", "name": "Urb Santa Iglesia", "lat": 37.31348975215373, "lon": -6.090728044509888}, {"id": "1_2194", "name": "Urb La Hispalense (I)", "lat": 37.31025355226182, "lon": -6.1040908098220825}, {"id": "1_2195", "name": "Urb La Hispalense", "lat": 37.31042208555617, "lon": -6.103980839252472}, {"id": "1_2196", "name": "Golegio", "lat": 37.30965408267208, "lon": -6.109347939491272}, {"id": "1_2197", "name": "Colegio", "lat": 37.309550615017216, "lon": -6.109349280595779}, {"id": "1_2200", "name": "Rtda Circunvalacion", "lat": 37.30735556, "lon": -6.1151161111}, {"id": "1_2201", "name": "Rtda Entrada (V)", "lat": 37.310767684294504, "lon": -6.100260615348816}, {"id": "1_2202", "name": "Rtda Entrada", "lat": 37.3104, "lon": -6.100366667}, {"id": "1_2203", "name": "C Ventorro Ambulatorio", "lat": 37.302859, "lon": -6.247128}, {"id": "1_2204", "name": "C F Garcia Lorca (Los Bucaros)", "lat": 37.30578333, "lon": -6.246919444}, {"id": "1_2205", "name": "Camino De Acceso A La Estacion", "lat": 37.30485, "lon": -6.265191667}, {"id": "1_2206", "name": "Urb Los Naranjos", "lat": 37.30478276, "lon": -6.268415}, {"id": "1_2207", "name": "Plaza Del Cabildo (Ayuntamiento)", "lat": 37.303767, "lon": -6.251173}, {"id": "1_2208", "name": "C F Garcia Lorca (Frente Los Bucaros)", "lat": 37.30562222, "lon": -6.246844444}, {"id": "1_2209", "name": "Villa Amalia (I)", "lat": 37.30808737, "lon": -6.2344327}, {"id": "1_2210", "name": "Villa Amalia", "lat": 37.3082495079761, "lon": -6.234454157672122}, {"id": "1_2211", "name": "C Sevilla Iglesia", "lat": 37.523315158905916, "lon": -6.26875085125295}, {"id": "1_2212", "name": "C Estacion Dia (V)", "lat": 37.51615997631659, "lon": -6.264970515287587}, {"id": "1_2213", "name": "C Estacion Dia", "lat": 37.51608530244706, "lon": -6.2649038865577715}, {"id": "1_2214", "name": "Av Andalucia Surtidor (V)", "lat": 37.51616944, "lon": -6.266783333}, {"id": "1_2215", "name": "Av Andalucia Surtidor (I)", "lat": 37.51656111, "lon": -6.267366667}, {"id": "1_2216", "name": "Av Andalucia La Farola (Ppal)", "lat": 37.519675312191744, "lon": -6.268478199502397}, {"id": "1_2217", "name": "Av Andalucia La Farola", "lat": 37.51975138556739, "lon": -6.26835357237987}, {"id": "1_2222", "name": "Hotel Andalusi Park", "lat": 37.3599981930823, "lon": -6.1998966336250305}, {"id": "1_2226", "name": "La Fuente", "lat": 37.35579072526261, "lon": -6.198185384273529}, {"id": "1_2227", "name": "La Fuente Roblas", "lat": 37.35807615831024, "lon": -6.1993163441802945}, {"id": "1_2228", "name": "Cortijo Gelo (V)", "lat": 37.312021045156165, "lon": -6.198849987877139}, {"id": "1_2229", "name": "Cortijo Gelo", "lat": 37.31181111, "lon": -6.198902778}, {"id": "1_2230", "name": "Av De La Constitucion Primera Parada (V)", "lat": 37.33800833, "lon": -6.134586111}, {"id": "1_2231", "name": "Av De La Constitucion Segunda Parada (V)", "lat": 37.33603453672106, "lon": -6.1368648570327196}, {"id": "1_2232", "name": "Av De La Constitucion Segunda Parada (I)", "lat": 37.33812041023671, "lon": -6.134283095598221}, {"id": "1_2233", "name": "Av De La Constitucion Primera Parada (I)", "lat": 37.3360102280536, "lon": -6.136703789234161}, {"id": "1_2236", "name": "Urb Cuatrovitas", "lat": 37.347007262592534, "lon": -6.138270199298859}, {"id": "1_2237", "name": "C Mulhacen", "lat": 37.34445379961945, "lon": -6.138065010309219}, {"id": "1_2238", "name": "Casa De La Cultura Bollullos", "lat": 37.34035315088459, "lon": -6.140031069517136}, {"id": "1_2239", "name": "C Calvario Esq Raquejo", "lat": 37.33766830949386, "lon": -6.1394959688186646}, {"id": "1_2240", "name": "C Calvario", "lat": 37.333021323846886, "lon": -6.140552759170532}, {"id": "1_2242", "name": "Av Alcalde Cecilio Gutiérrez", "lat": 37.349667249623465, "lon": -6.137720346450806}, {"id": "1_2246", "name": "Escuela De Arte Floral (V)", "lat": 37.327042733333336, "lon": -6.150417565}, {"id": "1_2247", "name": "Escuela De Arte Floral", "lat": 37.32601468838616, "lon": -6.151468990933837}, {"id": "1_2248", "name": "Urb La Juliana (Sur)", "lat": 37.31569887357502, "lon": -6.170905549022222}, {"id": "1_2249", "name": "Urb La Juliana (Norte)", "lat": 37.31901335147247, "lon": -6.163545412546615}, {"id": "1_2250", "name": "Makro (Frente)", "lat": 37.381045783333334, "lon": -6.06439268333333}, {"id": "1_2251", "name": "Makro", "lat": 37.3813545600768, "lon": -6.06485088307088}, {"id": "1_2252", "name": "El Barrero C Asturias (I)", "lat": 37.37911570938301, "lon": -6.0674329755696155}, {"id": "1_2253", "name": "El Barrero C Asturias", "lat": 37.379467383333335, "lon": -6.0673615}, {"id": "1_2254", "name": "El Barrero San Judas Tadeo (V)", "lat": 37.3770141, "lon": -6.07032148333333}, {"id": "1_2255", "name": "El Barrero San Judas Tadeo", "lat": 37.37707987346684, "lon": -6.069506541634328}, {"id": "1_2256", "name": "El Barrero Recinto Ferial (V)", "lat": 37.37532076666667, "lon": -6.07529268333333}, {"id": "1_2257", "name": "El Barrero Recinto Ferial", "lat": 37.374797578312496, "lon": -6.075764305633952}, {"id": "1_2258", "name": "C/ Hernan Cortes Nº18", "lat": 37.37518340145951, "lon": -6.064870418107948}, {"id": "1_2259", "name": "Avjuan Carlos I Rey De España (Parque)", "lat": 37.375452758270335, "lon": -6.065398030050164}, {"id": "1_2260", "name": "Av Del Aljarafe Ayuntamiento (Frente)", "lat": 37.37267911679185, "lon": -6.071147494452935}, {"id": "1_2261", "name": "Av Del Aljarafe Cafeteria Imperial", "lat": 37.37444615876954, "lon": -6.069369747704465}, {"id": "1_2262", "name": "Av Del Aljarafe Ayuntamiento", "lat": 37.372452777777, "lon": -6.071183333333}, {"id": "1_2263", "name": "Av Del Aljarafe Cafeteria Imperial (Frente)", "lat": 37.37452848166537, "lon": -6.06906645129192}, {"id": "1_2264", "name": "Coso Calero Parque Los Alamos (V)", "lat": 37.37084131933302, "lon": -6.074902559516908}, {"id": "1_2265", "name": "Coso Calero Parque Los Alamos", "lat": 37.37049980501633, "lon": -6.075243059717563}, {"id": "1_2266", "name": "Nueva Sevilla Convento (V)", "lat": 37.37949355491681, "lon": -6.0650407316645065}, {"id": "1_2267", "name": "Rtda Bollullos Puertas Leyva (V)", "lat": 37.36924803652075, "lon": -6.078333556652069}, {"id": "1_2268", "name": "Rtda Bollullos Puertas Leyva", "lat": 37.36924644400313, "lon": -6.077870480864053}, {"id": "1_2269", "name": "Universidad Ceu", "lat": 37.369887531834216, "lon": -6.086502224206924}, {"id": "1_2270", "name": "Hospital San Juan De Dios", "lat": 37.37124430967251, "lon": -6.083609461784363}, {"id": "1_2271", "name": "Urb Caballero", "lat": 37.367380383333334, "lon": -6.0822873}, {"id": "1_2274", "name": "Nueva Sevilla Convento", "lat": 37.38006667, "lon": -6.064169444}, {"id": "1_2275", "name": "Paraje De Paterna (Pares)", "lat": 37.36642625, "lon": -6.07758478333333}, {"id": "1_2276", "name": "Paraje De Paterna", "lat": 37.3666537612898, "lon": -6.076952219009399}, {"id": "1_2277", "name": "Glorieta Hispanoamerica (I)", "lat": 37.37368028010739, "lon": -6.07987142185749}, {"id": "1_2278", "name": "Glorieta Hispanoamerica", "lat": 37.37387947766228, "lon": -6.078738990237733}, {"id": "1_2279", "name": "El Barrero Depositos (I)", "lat": 37.38053407336541, "lon": -6.066420235356604}, {"id": "1_2280", "name": "El Barrero Depositos", "lat": 37.380519283333335, "lon": -6.06656996166667}, {"id": "1_2281", "name": "Frente Ceu", "lat": 37.37033333, "lon": -6.085822222}, {"id": "1_2282", "name": "Zaudin", "lat": 37.36125388517777, "lon": -6.068350374698639}, {"id": "1_2283", "name": "Av Blas Infante La Carpanta (I)", "lat": 37.55216907760305, "lon": -5.868850782709018}, {"id": "1_2284", "name": "Av Blas Infante La Carpanta (V)", "lat": 37.551841877117475, "lon": -5.868900033513991}, {"id": "1_2285", "name": "Av Joaquin Turina Cuatro Caminos (I)", "lat": 37.54734433574631, "lon": -5.87285243695892}, {"id": "1_2286", "name": "Av Joaquin Turina Cuatro Caminos (V)", "lat": 37.54721315443812, "lon": -5.8728269004252525}, {"id": "1_2287", "name": "Av Joaquin Turina Mercadona (I)", "lat": 37.54562825, "lon": -5.876182075}, {"id": "1_2288", "name": "Av Joaquin Turina Mercadona (V)", "lat": 37.54635065457879, "lon": -5.875115658675036}, {"id": "1_2289", "name": "Av Sevilla Fabrica De Aceite (I)", "lat": 37.54064186666667, "lon": -5.882676025}, {"id": "1_2290", "name": "Av Sevilla Fabrica De Aceite (V)", "lat": 37.54066738803136, "lon": -5.882295151319889}, {"id": "1_2291", "name": "Balcon De Sevilla", "lat": 37.402761111, "lon": -6.037594444}, {"id": "1_2292", "name": "Ies Camas (I)", "lat": 37.40515833628394, "lon": -6.037644478281343}, {"id": "1_2293", "name": "Ies Camas", "lat": 37.40425067841097, "lon": -6.037397715051973}, {"id": "1_2294", "name": "Pza Del Almendro Capilla Buen Aire", "lat": 37.40015312177057, "lon": -6.038321566775715}, {"id": "1_2296", "name": "C/ José Payán", "lat": 37.39857346666667, "lon": -6.034759825}, {"id": "1_2297", "name": "Sta Maria De Gracia Caja Rural", "lat": 37.402441106531555, "lon": -6.035073693890578}, {"id": "1_2298", "name": "Sta Maria De Gracia Ambulatorio", "lat": 37.405027222029325, "lon": -6.0357944463249735}, {"id": "1_2299", "name": "C Mercedes De Velilla Bar Flores", "lat": 37.406539, "lon": -6.03583}, {"id": "1_2303", "name": "Avda Clara Campoamor (Feria)", "lat": 37.39546295432537, "lon": -6.028450538491816}, {"id": "1_2304", "name": "C Mercedes De Velilla", "lat": 37.40882309307506, "lon": -6.035782614180289}, {"id": "1_2305", "name": "Bda La Extremeña", "lat": 37.396378, "lon": -6.034602}, {"id": "1_2306", "name": "Avda Clara Campoamor (Hotel)", "lat": 37.39643136873852, "lon": -6.030912101268768}, {"id": "1_2307", "name": "Avda Clara Campoamor", "lat": 37.39725652875076, "lon": -6.033169418350424}, {"id": "1_2308", "name": "Mercadona", "lat": 37.39728628333334, "lon": -6.034263525}, {"id": "1_2309", "name": "Correos Traseras", "lat": 37.39869722, "lon": -6.035430556}, {"id": "1_2310", "name": "Apeadero Camas", "lat": 37.40044444, "lon": -6.036936111}, {"id": "1_2311", "name": "Ntra Sra De Los Dolores", "lat": 37.4014153489236, "lon": -6.042850613594055}, {"id": "1_2312", "name": "Bda Cañoronco", "lat": 37.3998006, "lon": -6.047415935}, {"id": "1_2313", "name": "N-630 Antes De Rotonda", "lat": 37.40937435629309, "lon": -6.036582286879688}, {"id": "1_2314", "name": "Venta De Curro (I)", "lat": 37.41905876471214, "lon": -6.036988678994548}, {"id": "1_2315", "name": "Venta De Curro -Frente- (V)", "lat": 37.41838986509806, "lon": -6.036666813912761}, {"id": "1_2316", "name": "Carrefour Camas", "lat": 37.3920983165965, "lon": -6.033029508516545}, {"id": "1_2317", "name": "Coca De La Piñera", "lat": 37.38539722, "lon": -6.036919444}, {"id": "1_2318", "name": "Carambolo", "lat": 37.388386011766826, "lon": -6.041768147488904}, {"id": "1_2319", "name": "Carambolo (Frente)", "lat": 37.38804584906166, "lon": -6.04129669219412}, {"id": "1_2320", "name": "Rotonda Pañoleta", "lat": 37.3887989, "lon": -6.0319368}, {"id": "1_2321", "name": "Bda El Chato", "lat": 37.39103550328154, "lon": -6.033825925264995}, {"id": "1_2322", "name": "Frente Riomovil", "lat": 37.386937663653384, "lon": -6.02987676858902}, {"id": "1_2323", "name": "Riomovil", "lat": 37.38682897454683, "lon": -6.029450297355652}, {"id": "1_2324", "name": "Vega Del Rey", "lat": 37.38054924718571, "lon": -6.027354151010513}, {"id": "1_2325", "name": "Frente Vega Del Rey", "lat": 37.380520474103925, "lon": -6.0271382331848145}, {"id": "1_2326", "name": "Rtda Pañoleta Caixa", "lat": 37.38851433682193, "lon": -6.031313485051979}, {"id": "1_2327", "name": "Rues (Gasolinera)", "lat": 37.414845588358325, "lon": -6.0360712701730375}, {"id": "1_2330", "name": "El Miro (V)", "lat": 37.46695609704799, "lon": -5.657787322998047}, {"id": "1_2331", "name": "El Miro", "lat": 37.46650477295214, "lon": -5.656919628381729}, {"id": "1_2332", "name": "Gasolinera De Entrada (V)", "lat": 37.46754816666667, "lon": -5.6497668999999995}, {"id": "1_2333", "name": "Gasolinera De Entrada", "lat": 37.46704763886714, "lon": -5.650738477706909}, {"id": "1_2334", "name": "Paseo Del Estatuto", "lat": 37.47046547470238, "lon": -5.644614994525909}, {"id": "1_2335", "name": "Villarosa Restaurante El Ancla (V)", "lat": 37.46358174480146, "lon": -5.6529700756073}, {"id": "1_2336", "name": "Villarosa Frente Restaurante El Ancla (I)", "lat": 37.46349231666667, "lon": -5.6529380683333335}, {"id": "1_2337", "name": "Recinto Ferial (Paseo Cruz Del Carmen)", "lat": 37.46671127535299, "lon": -5.649208277463913}, {"id": "1_2341", "name": "El Recreo", "lat": 37.45196195058577, "lon": -5.664402991533279}, {"id": "1_2342", "name": "Venta El Aguila", "lat": 37.44922162448505, "lon": -5.773836198387143}, {"id": "1_2346", "name": "El Matadero", "lat": 37.44885222, "lon": -5.6665905}, {"id": "1_2347", "name": "Urb Pino Grande (Frente)", "lat": 37.43302925881469, "lon": -5.813652939596143}, {"id": "1_2348", "name": "Urb Pino Grande", "lat": 37.433140010753796, "lon": -5.814693636693922}, {"id": "1_2349", "name": "Venta Antonio (V)", "lat": 37.43465684029924, "lon": -5.809989501300043}, {"id": "1_2350", "name": "Venta Antonio -Frente- (I)", "lat": 37.43644301101835, "lon": -5.808495283126831}, {"id": "1_2351", "name": "Rodri", "lat": 37.4361065098519, "lon": -5.806582868099213}, {"id": "1_2352", "name": "Granja Soldado", "lat": 37.448057947655464, "lon": -5.667164476062525}, {"id": "1_2353", "name": "Cruce Tocina El Viso (I)", "lat": 37.46926862677348, "lon": -5.71399694527587}, {"id": "1_2354", "name": "Cruce Tocina El Viso", "lat": 37.46780658009718, "lon": -5.714166015386581}, {"id": "1_2355", "name": "Las Monjas Matallana (V)", "lat": 37.4609130246247, "lon": -5.734688937664032}, {"id": "1_2356", "name": "Las Monjas Matallana", "lat": 37.46141122134217, "lon": -5.737025141716003}, {"id": "1_2357", "name": "Los Frutales Del Alcor", "lat": 37.41891315808378, "lon": -5.698553783267202}, {"id": "1_2358", "name": "Los Frutales Del Alcor (Frente)", "lat": 37.41875978005627, "lon": -5.69834457096404}, {"id": "1_2359", "name": "Los Nietos Chaparral (I)", "lat": 37.452403805518976, "lon": -5.7641009765304485}, {"id": "1_2360", "name": "Los Nietos Chaparral", "lat": 37.452301599279835, "lon": -5.762743778768913}, {"id": "1_2361", "name": "Av Reyes De Espana Bda El Pilar (I)", "lat": 37.37139114, "lon": -6.3317505}, {"id": "1_2362", "name": "Av Reyes De Espana Bda El Pilar (V)", "lat": 37.37135490280467, "lon": -6.331943619049067}, {"id": "1_2363", "name": "C Francisco Morillo Esq C Castelar", "lat": 37.371633198829, "lon": -6.329503750756844}, {"id": "1_2364", "name": "Plaza Gustavo Adolfo Becquer", "lat": 37.37181225237305, "lon": -6.329771971658333}, {"id": "1_2365", "name": "C Ramon Barranco Esq Pablo Picasso (V)", "lat": 37.3725114097393, "lon": -6.32809827323304}, {"id": "1_2366", "name": "C Ramon Barranco Esq Pablo Picasso", "lat": 37.372426146994925, "lon": -6.328205561593636}, {"id": "1_2367", "name": "Novaparq", "lat": 37.36250013, "lon": -6.3268865}, {"id": "1_2368", "name": "Novaparq Frente", "lat": 37.362470284068785, "lon": -6.3264895330658}, {"id": "1_2369", "name": "Estacion De Renfe", "lat": 37.367423672231155, "lon": -6.332862030194102}, {"id": "1_2370", "name": "Estacion De Renfe Frente", "lat": 37.36770505768277, "lon": -6.332980047390757}, {"id": "1_2371", "name": "Haza De Arriba", "lat": 37.36576709806871, "lon": -6.325298371849057}, {"id": "1_2372", "name": "Av Castilleja De La Cuesta", "lat": 37.40872025485221, "lon": -6.059596985578537}, {"id": "1_2373", "name": "Urb Senorio De Guzman", "lat": 37.40491023333333, "lon": -6.0622406699999996}, {"id": "1_2374", "name": "C Real Supermercado Codi (V)", "lat": 37.38575699315383, "lon": -6.05571985244751}, {"id": "1_2375", "name": "C Real Frente Supermercado Codi (I)", "lat": 37.38543876708673, "lon": -6.056331851478364}, {"id": "1_2376", "name": "C Real Irlandesas Frente", "lat": 37.38651143096044, "lon": -6.051853448152542}, {"id": "1_2377", "name": "Hacienda San Ignacio (V)", "lat": 37.384800082303535, "lon": -6.060056984424591}, {"id": "1_2378", "name": "Muebles Castellano (V)", "lat": 37.38453468428843, "lon": -6.062248097228208}, {"id": "1_2379", "name": "Muebles Castellano (I)", "lat": 37.38474024001079, "lon": -6.0635114337840745}, {"id": "1_2380", "name": "C Real Maristas (V)", "lat": 37.387315943138795, "lon": -6.047970950603485}, {"id": "1_2381", "name": "Airesur-Ikea (Colina Blanca)", "lat": 37.3825605, "lon": -6.045104826666667}, {"id": "1_2382", "name": "Av Juan Carlos I Once (Frente)", "lat": 37.37994793, "lon": -6.0622824}, {"id": "1_2383", "name": "Av Juan Carlos I Frente Farmacia", "lat": 37.37797797017709, "lon": -6.061589980356607}, {"id": "1_2385", "name": "Airesur-Ikea (Valero Chico)", "lat": 37.38614700008643, "lon": -6.045656204223633}, {"id": "1_2386", "name": "Av De Andalucia Gasolinera", "lat": 37.3774379, "lon": -6.0607772}, {"id": "1_2387", "name": "Av De Andalucia Gasolinera (Frente)", "lat": 37.377469871404614, "lon": -6.061286819712839}, {"id": "1_2388", "name": "Av Juan Carlos I Once", "lat": 37.37991141374319, "lon": -6.0625331593078675}, {"id": "1_2389", "name": "Av Juan Carlos I Farmacia", "lat": 37.37796731311662, "lon": -6.061758959524545}, {"id": "1_2390", "name": "C Real Maristas", "lat": 37.38710405117634, "lon": -6.048568830057071}, {"id": "1_2391", "name": "C Real Irlandesas", "lat": 37.38620244294634, "lon": -6.052684198183509}, {"id": "1_2392", "name": "Airesur-Ikea", "lat": 37.38382184678427, "lon": -6.046070605516434}, {"id": "1_2394", "name": "Plaza Gamero Civico Casa Cultura", "lat": 37.38653824958816, "lon": -6.335912577923523}, {"id": "1_2397", "name": "C Tajo -Solar- (V)", "lat": 37.29408256666667, "lon": -6.052762123333333}, {"id": "1_2398", "name": "Iglesia De San Jose", "lat": 37.29043033615594, "lon": -6.054382369447837}, {"id": "1_2399", "name": "C Tajo", "lat": 37.29404272398305, "lon": -6.051903069019318}, {"id": "1_2400", "name": "C Batan Bar Guadalquivir (I)", "lat": 37.29409546666667, "lon": -6.045841398333334}, {"id": "1_2401", "name": "C Batan Bar Guadalquivir", "lat": 37.29431950363498, "lon": -6.045947832196663}, {"id": "1_2402", "name": "Av Andalucia (Bar Los Albures)", "lat": 37.286782108971316, "lon": -6.04845765617523}, {"id": "1_2403", "name": "Avda De Andalucia Mercado De Abastos (Frente)", "lat": 37.284181322987685, "lon": -6.0502432961912}, {"id": "1_2404", "name": "Avda De Andalucia Mercado De Abastos", "lat": 37.28420023333334, "lon": -6.050104476666666}, {"id": "1_2405", "name": "Av Primero De Mayo Bar Arizona", "lat": 37.29061134489868, "lon": -6.052398020316985}, {"id": "1_2406", "name": "Avda De Andalucia 192", "lat": 37.28254004815458, "lon": -6.051979993885494}, {"id": "1_2407", "name": "Avda De Andalucia 147", "lat": 37.282464972565066, "lon": -6.051770667844335}, {"id": "1_2408", "name": "Avda Blas Infante 27", "lat": 37.278850702857426, "lon": -6.057510226964951}, {"id": "1_2409", "name": "Avda Blas Infante 12", "lat": 37.278882535509815, "lon": -6.057585205368956}, {"id": "1_2410", "name": "Av De Palomares Bar La Mecha", "lat": 37.29451429122831, "lon": -6.054354608058929}, {"id": "1_2411", "name": "Gran Avenida (V)", "lat": 37.29504788333333, "lon": -6.047076111666667}, {"id": "1_2412", "name": "Gran Avenida", "lat": 37.295163256209435, "lon": -6.047058174180299}, {"id": "1_2413", "name": "Av Andalucia ( Bar Los Albures)", "lat": 37.28669674888039, "lon": -6.048682961732481}, {"id": "1_2414", "name": "Av De Palomares Esq Calle Adelfa", "lat": 37.294034188802044, "lon": -6.054557114839554}, {"id": "1_2415", "name": "C Carretero Mercadona (V)", "lat": 37.288016091128526, "lon": -6.061687407909853}, {"id": "1_2416", "name": "C Carretero Mercadona", "lat": 37.28802889492378, "lon": -6.061478195606691}, {"id": "1_2417", "name": "Av Blanca Paloma (V)", "lat": 37.282635066666664, "lon": -6.062618645}, {"id": "1_2418", "name": "Av Blanca Paloma (I)", "lat": 37.28286880750252, "lon": -6.0622141113744155}, {"id": "1_2419", "name": "Rtda Kia (V)", "lat": 37.29586923043851, "lon": -6.055002361536026}, {"id": "1_2420", "name": "Rtda Kia", "lat": 37.29598978130159, "lon": -6.054611541374412}, {"id": "1_2421", "name": "Museo De La Autonomia (V)", "lat": 37.274747010143365, "lon": -6.061883970953474}, {"id": "1_2422", "name": "Museo De La Autonomia", "lat": 37.27490228126313, "lon": -6.0615174472332}, {"id": "1_2423", "name": "C/ Murano (Poliderportivo)", "lat": 37.33142392278295, "lon": -5.92761754989624}, {"id": "1_2428", "name": "Paula Montal Mercadona", "lat": 37.33910777173706, "lon": -5.927105247974396}, {"id": "1_2429", "name": "Paula Montalt Ambulatorio", "lat": 37.34061544557226, "lon": -5.9315067529678345}, {"id": "1_2431", "name": "Rtda Entrada Olivar De Quintos", "lat": 37.32905433262795, "lon": -5.922200986250809}, {"id": "1_2432", "name": "Rtda Salida Olivar De Quintos", "lat": 37.32886795134988, "lon": -5.921990633611684}, {"id": "1_2433", "name": "Av Condes De Ibarra Comerciales", "lat": 37.3255665103334, "lon": -5.926137337249048}, {"id": "1_2434", "name": "Av Condes De Ibarra Comerciales (Frente)", "lat": 37.32574545, "lon": -5.926285796666667}, {"id": "1_2435", "name": "Av Condes De Ibarra Esquina C Vainilla", "lat": 37.32519001666667, "lon": -5.929216845}, {"id": "1_2436", "name": "Av Condes De Ibarra Esquina Yuca", "lat": 37.325362451487216, "lon": -5.929362205953463}, {"id": "1_2437", "name": "Av Condes De Ibarra Esquina Malvavisco", "lat": 37.32414330975299, "lon": -5.933452534655768}, {"id": "1_2438", "name": "Av Condes De Ibarra Esquina Lupulo", "lat": 37.324304684719294, "lon": -5.9336221255968775}, {"id": "1_2440", "name": "Av Europa Rotonda", "lat": 37.3333393283416, "lon": -5.92728134655915}, {"id": "1_2441", "name": "Av Europa (Orbita)", "lat": 37.33180378304867, "lon": -5.924593773126228}, {"id": "1_2442", "name": "Metro Condequinto (Pasarela)", "lat": 37.34684224424601, "lon": -5.935794677972419}, {"id": "1_2443", "name": "Metro Condequinto", "lat": 37.34662048507297, "lon": -5.9363847639556955}, {"id": "1_2444", "name": "Av Condes De Ibarra Esquina C Tila", "lat": 37.32597055758066, "lon": -5.939581957101447}, {"id": "1_2445", "name": "Metro Olivar De Quintos (I)", "lat": 37.32910982488427, "lon": -5.938404053449631}, {"id": "1_2447", "name": "Frente Coleg Gloria Fuertes", "lat": 37.34118504829112, "lon": -5.934882726907356}, {"id": "1_2448", "name": "Metro Europa (V)", "lat": 37.336625716327454, "lon": -5.93552645707093}, {"id": "1_2449", "name": "Avd Montequinto N 48", "lat": 37.33382771047234, "lon": -5.935896601914985}, {"id": "1_2450", "name": "Metro Olivar De Quintos", "lat": 37.329081077541616, "lon": -5.938955247402191}, {"id": "1_2451", "name": "Av Condes De Ibarra Esquina Hierbaluisa", "lat": 37.325915102442025, "lon": -5.939834084748847}, {"id": "1_2452", "name": "Fuente Del Rey (Frente Neumáticos Borrallo)", "lat": 37.31115274768433, "lon": -5.975993871688843}, {"id": "1_2453", "name": "Fuente Del Rey (Neumáticos Borrallo)", "lat": 37.31101088245438, "lon": -5.9757886826992035}, {"id": "1_2454", "name": "Fuente Del Rey (Frente Super Cash)", "lat": 37.30996235143888, "lon": -5.9772491455078125}, {"id": "1_2455", "name": "Fuente Del Rey (Super Cash)", "lat": 37.309954884736285, "lon": -5.976970195770264}, {"id": "1_2456", "name": "Av Cristobal Colon", "lat": 37.28114282664439, "lon": -5.931439697742462}, {"id": "1_2457", "name": "Gasolinera Bp (I)", "lat": 37.2866071474345, "lon": -5.936869829893112}, {"id": "1_2458", "name": "Gasolinera Bp", "lat": 37.28635641666666, "lon": -5.937024865}, {"id": "1_2461", "name": "Plaza Del Arenal Renfe", "lat": 37.28692210087657, "lon": -5.923506756768082}, {"id": "1_2462", "name": "Plaza De Los Juzgados", "lat": 37.28511572626319, "lon": -5.920297801494598}, {"id": "1_2463", "name": "C Real De Utrera Segunda Parada", "lat": 37.28032970692136, "lon": -5.918090343475342}, {"id": "1_2464", "name": "C Real De Utrera Primera Parada", "lat": 37.2779611, "lon": -5.9151356433333335}, {"id": "1_2465", "name": "Av De Espana Kia", "lat": 37.289170365692314, "lon": -5.916093383020025}, {"id": "1_2466", "name": "C 28 De Febrero (V)", "lat": 37.289939759090224, "lon": -5.91347685359404}, {"id": "1_2467", "name": "Av De La Libertad", "lat": 37.28953814761234, "lon": -5.931364595890045}, {"id": "1_2468", "name": "Av De Sevilla Venta Las Palmas", "lat": 37.28941971479864, "lon": -5.929900109767914}, {"id": "1_2469", "name": "Av Andalucia Consultorio", "lat": 37.28192159741733, "lon": -5.9260420984046505}, {"id": "1_2470", "name": "Av Andalucia Quintano", "lat": 37.279585427727035, "lon": -5.921415745190256}, {"id": "1_2471", "name": "Bda Montecillos", "lat": 37.27477208653754, "lon": -5.920571386814117}, {"id": "1_2472", "name": "Bda Virgen Del Rocio", "lat": 37.27390052368591, "lon": -5.9285066463409475}, {"id": "1_2473", "name": "Bda Ciudad Blanca", "lat": 37.27141469232275, "lon": -5.926230847835541}, {"id": "1_2476", "name": "Av. 4 De Diciembre (Bda Las Torres)", "lat": 37.267735592373654, "lon": -5.9267798471354824}, {"id": "1_2477", "name": "Av Adolfo Suarez Segunda Parada (I)", "lat": 37.29597805126906, "lon": -5.936737060546875}, {"id": "1_2478", "name": "Av Adolfo Suarez Segunda Parada (V)", "lat": 37.295720483333334, "lon": -5.936776041666667}, {"id": "1_2479", "name": "Av Adolfo Suarez Tercera Parada (I)", "lat": 37.293923231360964, "lon": -5.9398457407951355}, {"id": "1_2480", "name": "Av Adolfo Suarez Primera Parada (V)", "lat": 37.29381654135943, "lon": -5.939660668373108}, {"id": "1_2481", "name": "Pza Del Acebuche", "lat": 37.28121250755806, "lon": -5.931113753503423}, {"id": "1_2482", "name": "Av De Los Pirralos Pza Bruselas", "lat": 37.27821822292566, "lon": -5.9285817481933645}, {"id": "1_2483", "name": "C Joselito El Gallo", "lat": 37.28879553878142, "lon": -5.908286869525909}, {"id": "1_2484", "name": "Av Juan Pablo Ii Segunda Parada", "lat": 37.28397793163703, "lon": -5.9077343344688416}, {"id": "1_2485", "name": "Luis Cernuda (V)", "lat": 37.294563334802255, "lon": -5.931105278820807}, {"id": "1_2486", "name": "Luis Cernuda", "lat": 37.294164350207005, "lon": -5.930492877960205}, {"id": "1_2487", "name": "C Garcilaso De La Vega", "lat": 37.290489871202624, "lon": -5.932021737098694}, {"id": "1_2488", "name": "Av Juan Pablo Ii Tercera Parada", "lat": 37.28048763637387, "lon": -5.909826457500458}, {"id": "1_2489", "name": "Av Juan Pablo Ii Primera Parada", "lat": 37.28684295472985, "lon": -5.9059882164001465}, {"id": "1_2490", "name": "C 28 De Febrero", "lat": 37.29028460493038, "lon": -5.913195631896691}, {"id": "1_2491", "name": "Av Adolfo Suarez Primera Parada (I)", "lat": 37.29706198349736, "lon": -5.93499094247818}, {"id": "1_2492", "name": "Av Adolfo Suarez Tercera Parada (V)", "lat": 37.29706321343245, "lon": -5.934634357486366}, {"id": "1_2493", "name": "Lateral De Interoliva", "lat": 37.29192810329155, "lon": -5.92862069606781}, {"id": "1_2494", "name": "Av De Espana Aldi", "lat": 37.290791, "lon": -5.91872}, {"id": "1_2495", "name": "Av De Espana Frente Mercadona", "lat": 37.29285419070798, "lon": -5.923623740673065}, {"id": "1_2497", "name": "Pgno La Isla Entrada", "lat": 37.29261840225166, "lon": -5.9898072481155396}, {"id": "1_2498", "name": "Pgno La Isla Salida", "lat": 37.29255652099593, "lon": -5.989698618650436}, {"id": "1_2499", "name": "Seditel (V)", "lat": 37.28835594504298, "lon": -5.9920307993888855}, {"id": "1_2500", "name": "Seditel", "lat": 37.28817669249017, "lon": -5.991930216550827}, {"id": "1_2501", "name": "Ucasa", "lat": 37.27894994429947, "lon": -5.994943678379059}, {"id": "1_2502", "name": "Ucasa (Frente)", "lat": 37.27907372914058, "lon": -5.994710326194763}, {"id": "1_2503", "name": "Frigorificos Nazarenos (V)", "lat": 37.26963355, "lon": -5.99901678}, {"id": "1_2504", "name": "Frigorificos Nazarenos", "lat": 37.269795704607745, "lon": -5.998804718255997}, {"id": "1_2505", "name": "Copero", "lat": 37.315560036365135, "lon": -6.007407903671265}, {"id": "1_2506", "name": "Crown", "lat": 37.29802641400191, "lon": -5.995187759399414}, {"id": "1_2508", "name": "Pasarela Upo ( Via De Servicio )", "lat": 37.35440808300695, "lon": -5.946409106254578}, {"id": "1_2509", "name": "Club De Campo (V)", "lat": 37.290124974119045, "lon": -5.934156775474548}, {"id": "1_2510", "name": "Club De Campo (I)", "lat": 37.290370372937375, "lon": -5.934443771839142}, {"id": "1_2512", "name": "Camping Villsom Trasera", "lat": 37.2769191, "lon": -5.93792584}, {"id": "1_2513", "name": "Urb Parque Giralda", "lat": 37.269931411537954, "lon": -5.936192970459372}, {"id": "1_2514", "name": "Bda Las Portadas", "lat": 37.26806995557506, "lon": -5.936179161071777}, {"id": "1_2515", "name": "Upo Facultades Rtda", "lat": 37.353931116666665, "lon": -5.939687155}, {"id": "1_2516", "name": "Residencial Palmera Real", "lat": 37.34568949463202, "lon": -5.932692289352417}, {"id": "1_2517", "name": "Historiador Juan Manzano", "lat": 37.34779087577824, "lon": -5.934775024652481}, {"id": "1_2518", "name": "Pgno La Palmera", "lat": 37.3075932361644, "lon": -5.9699079394340515}, {"id": "1_2519", "name": "Venta La Cuesta (V)", "lat": 37.312971372220225, "lon": -5.961078107357025}, {"id": "1_2520", "name": "Trafico (V)", "lat": 37.30581288384592, "lon": -5.955091416835785}, {"id": "1_2521", "name": "Trafico", "lat": 37.30557286907467, "lon": -5.954587161540985}, {"id": "1_2522", "name": "Rtda De Los Caballos  Esq. C/ Malva", "lat": 37.32381121160917, "lon": -5.938329702090141}, {"id": "1_2523", "name": "Rtda De Los Caballos", "lat": 37.323635, "lon": -5.938412078333333}, {"id": "1_2524", "name": "Cochera De Los Amarillos (V)", "lat": 37.27056945060769, "lon": -5.951738655567169}, {"id": "1_2525", "name": "Cochera De Los Amarillos", "lat": 37.27079463588075, "lon": -5.951638072729111}, {"id": "1_2526", "name": "Camping Villsom Se-3205 (V)", "lat": 37.276294283333335, "lon": -5.938218673333333}, {"id": "1_2527", "name": "Camping Villsom Se-3205", "lat": 37.2764844, "lon": -5.93828975}, {"id": "1_2528", "name": "Aceites La Espanola", "lat": 37.29927140721956, "lon": -5.9577226638793945}, {"id": "1_2529", "name": "Bda Federico Echaguy (V)", "lat": 37.313257228263495, "lon": -5.92075914144516}, {"id": "1_2530", "name": "Bda Federico Echaguy", "lat": 37.3139109876256, "lon": -5.920623642132569}, {"id": "1_2531", "name": "Venta La Cuesta", "lat": 37.31342895469223, "lon": -5.961190760135651}, {"id": "1_2532", "name": "Ctra De Los Palacios Caravanas (V)", "lat": 37.240608470076346, "lon": -5.925560295581818}, {"id": "1_2533", "name": "Ctra De Los Palacios Caravanas M", "lat": 37.240719415545264, "lon": -5.925004918033488}, {"id": "1_2534", "name": "Cruz Roja (I)", "lat": 37.38264223, "lon": -5.7282833}, {"id": "1_2535", "name": "Cruz Roja", "lat": 37.38252070983078, "lon": -5.72812020778656}, {"id": "1_2536", "name": "Paseo De La Constitucion", "lat": 37.385061044144244, "lon": -5.7249023601493905}, {"id": "1_2537", "name": "Parque De La Constitucion", "lat": 37.38507500894291, "lon": -5.725083947181702}, {"id": "1_2538", "name": "Terraplen (V)", "lat": 37.39036235538589, "lon": -5.720420926809311}, {"id": "1_2539", "name": "Terraplen", "lat": 37.390787500661666, "lon": -5.720104426145554}, {"id": "1_2540", "name": "Bar Jamon V", "lat": 37.392719314270686, "lon": -5.717074692593713}, {"id": "1_2541", "name": "Bar Jamon I", "lat": 37.39229515, "lon": -5.717829873333333}, {"id": "1_2542", "name": "Hotel Viso (I)", "lat": 37.39434626629667, "lon": -5.7153140008449554}, {"id": "1_2543", "name": "Hotel Viso", "lat": 37.39426848669809, "lon": -5.715053826570511}, {"id": "1_2544", "name": "Poliviso (V)", "lat": 37.40105951352798, "lon": -5.707772970199585}, {"id": "1_2545", "name": "Poliviso", "lat": 37.40057902652515, "lon": -5.708667486906052}, {"id": "1_2546", "name": "Colegio Europa (I)", "lat": 37.38486188760488, "lon": -6.099632978439331}, {"id": "1_2547", "name": "Colegio Europa", "lat": 37.384942966666664, "lon": -6.097601825}, {"id": "1_2548", "name": "Urb Villas Ciudad Jardin Triana (I)", "lat": 37.382426933322265, "lon": -6.115491539239883}, {"id": "1_2549", "name": "Urb Villas Ciudad Jardin Triana", "lat": 37.382756216227136, "lon": -6.115821450948715}, {"id": "1_2550", "name": "Urb Monasterio", "lat": 37.382795083333335, "lon": -6.15501377}, {"id": "1_2551", "name": "Urb Monasterio (Frente)", "lat": 37.38295066292614, "lon": -6.15505939755325}, {"id": "1_2552", "name": "Urb El Tejar (V)", "lat": 37.385033671537805, "lon": -6.165277105792432}, {"id": "1_2553", "name": "Urb El Tejar", "lat": 37.38511674847196, "lon": -6.164921071478382}, {"id": "1_2554", "name": "Urb El Capricho", "lat": 37.38478106346801, "lon": -6.170128384355979}, {"id": "1_2555", "name": "Urb El Capricho (Frente)", "lat": 37.38496232689679, "lon": -6.170030656298732}, {"id": "1_2556", "name": "Urb Alqueria De Almanzor (Frente)", "lat": 37.38440148691464, "lon": -6.093206878491825}, {"id": "1_2557", "name": "Urb Alqueria De Almanzor", "lat": 37.38481054217015, "lon": -6.093296667620138}, {"id": "1_2558", "name": "El Real ( Pta Del Hierro )", "lat": 37.38124615, "lon": -6.140220476666666}, {"id": "1_2561", "name": "Monasterio De Loreto", "lat": 37.381621, "lon": -6.148287}, {"id": "1_2562", "name": "Urb El Retiro (V)", "lat": 37.38438982168426, "lon": -6.107116341590881}, {"id": "1_2563", "name": "Urb El Retiro", "lat": 37.384572041613026, "lon": -6.107282638549805}, {"id": "1_2564", "name": "Primer Semaforo ( Entrada Espartinas )", "lat": 37.3831678680571, "lon": -6.122205937420655}, {"id": "1_2565", "name": "1 Semaforo", "lat": 37.38309966756113, "lon": -6.1218196993225105}, {"id": "1_2566", "name": "Hacienda San Antonio (I)", "lat": 37.3827157219673, "lon": -6.1252520978450775}, {"id": "1_2567", "name": "Hacienda San Antonio", "lat": 37.382793015892354, "lon": -6.125455208732107}, {"id": "1_2568", "name": "Horno La Cruz ( Pla De La Cruz )", "lat": 37.38212876666667, "lon": -6.128840201666667}, {"id": "1_2569", "name": "Residencial El Jardin (V)", "lat": 37.38139751530348, "lon": -6.135506182909012}, {"id": "1_2570", "name": "Residencial El Jardin", "lat": 37.38123553519806, "lon": -6.135456562042236}, {"id": "1_2571", "name": "Plaza De La Cruz", "lat": 37.38205395741173, "lon": -6.1285699903965}, {"id": "1_2572", "name": "Rtda Marina (V)", "lat": 37.34752470558336, "lon": -6.026208162040714}, {"id": "1_2573", "name": "Av De Coria Itv", "lat": 37.34226382942893, "lon": -6.0251158475875854}, {"id": "1_2574", "name": "Rtda Marina", "lat": 37.34790105156716, "lon": -6.02593189451218}, {"id": "1_2575", "name": "Av De Coria Itv (Frente)", "lat": 37.34271095606796, "lon": -6.024942938464566}, {"id": "1_2576", "name": "Ayuntamiento De Gelves", "lat": 37.33732603330069, "lon": -6.024615615606308}, {"id": "1_2577", "name": "Ayuntamiento De Gelves (Frente)", "lat": 37.33824019664797, "lon": -6.024411082000736}, {"id": "1_2578", "name": "Av De Coria Mapfre", "lat": 37.334268936566865, "lon": -6.025373339653015}, {"id": "1_2579", "name": "Av De Coria La Venta Mapfre", "lat": 37.33612325598952, "lon": -6.0243017971515656}, {"id": "1_2580", "name": "Urb Maestranza", "lat": 37.32858839892205, "lon": -6.028451174497604}, {"id": "1_2581", "name": "Pgno Guadalquivir", "lat": 37.320544309800866, "lon": -6.032248528527826}, {"id": "1_2582", "name": "Guardia Civil Gerena (V)", "lat": 37.5279855, "lon": -6.14990938}, {"id": "1_2585", "name": "Ambulatorio Gerena", "lat": 37.52995301578372, "lon": -6.151654780983282}, {"id": "1_2586", "name": "Av Primero De Mayo N 11", "lat": 37.52973930842922, "lon": -6.154453803571069}, {"id": "1_2587", "name": "Av Del Ferrocarril N 3", "lat": 37.528837483333334, "lon": -6.159160318333333}, {"id": "1_2588", "name": "Av De Las Lumbreras Frente Nº 1", "lat": 37.535270489872495, "lon": -6.154338407199892}, {"id": "1_2589", "name": "Av De Las Lumbreras N 1", "lat": 37.53493973333333, "lon": -6.154541376666667}, {"id": "1_2590", "name": "Av Primero De Mayo (La Cantina)", "lat": 37.52888846690519, "lon": -6.154834677251184}, {"id": "1_2591", "name": "Av Puente Sin Baranda ( C Anden)", "lat": 37.528419837947325, "lon": -6.159533145230105}, {"id": "1_2592", "name": "Policia Local Gines (I)", "lat": 37.389518712212315, "lon": -6.080265842907311}, {"id": "1_2593", "name": "Policia Local Gines (V)", "lat": 37.38978296616757, "lon": -6.080104910366417}, {"id": "1_2594", "name": "El Prado", "lat": 37.391579455541276, "lon": -6.079946494333705}, {"id": "1_2595", "name": "Hotel Gines (I)", "lat": 37.38462734245591, "lon": -6.066967531792815}, {"id": "1_2596", "name": "Hotel Gines", "lat": 37.384760342353765, "lon": -6.066839354442741}, {"id": "1_2597", "name": "Kiosco Marcos", "lat": 37.38442974566888, "lon": -6.079215354769893}, {"id": "1_2598", "name": "Meson El Bosque", "lat": 37.38375405686221, "lon": -6.078599952196653}, {"id": "1_2599", "name": "Pabellon Cubierto", "lat": 37.38569075, "lon": -6.079647536666666}, {"id": "1_2600", "name": "Farmacia Martin (I)", "lat": 37.38679166993402, "lon": -6.08075093904399}, {"id": "1_2601", "name": "C Colon (V)", "lat": 37.38496418592273, "lon": -6.081709116697311}, {"id": "1_2602", "name": "Gasolinera Gines", "lat": 37.38343062842032, "lon": -6.086208086530349}, {"id": "1_2603", "name": "C Colon", "lat": 37.383916687169986, "lon": -6.082427948713303}, {"id": "1_2608", "name": "Polideportivo Gines", "lat": 37.393681407946204, "lon": -6.08031839132309}, {"id": "1_2609", "name": "Gasolinera Gines (I)", "lat": 37.38333272423883, "lon": -6.086396276950836}, {"id": "1_2610", "name": "La Taurina (V)", "lat": 37.384480555555, "lon": -6.074625}, {"id": "1_2611", "name": "La Taurina", "lat": 37.384366666666, "lon": -6.074544444444}, {"id": "1_2613", "name": "Farmacia Martin", "lat": 37.387397222222, "lon": -6.080411111111}, {"id": "1_2614", "name": "Venta La Alegria (V)", "lat": 37.54880992156285, "lon": -6.0539324565902675}, {"id": "1_2615", "name": "Venta La Alegria", "lat": 37.54881139752227, "lon": -6.054101139307022}, {"id": "1_2616", "name": "Av Andalucia ( Arroyo )", "lat": 37.53631201838598, "lon": -6.054023802635016}, {"id": "1_2617", "name": "Av Andalucia (Arroyo)", "lat": 37.53653054469454, "lon": -6.053775579628506}, {"id": "1_2618", "name": "Av Andalucia (Taller)", "lat": 37.53921516847404, "lon": -6.053968679366046}, {"id": "1_2619", "name": "Av Pajanosas (Piruli) (V)", "lat": 37.543891869105416, "lon": -6.057305144066866}, {"id": "1_2620", "name": "Av Pajanosas (Hnos Punta) (V)", "lat": 37.546089724305766, "lon": -6.058891584720452}, {"id": "1_2621", "name": "Av Andalucia ( Taller )", "lat": 37.540203545790455, "lon": -6.054880404308269}, {"id": "1_2622", "name": "Parque (Frente)", "lat": 37.546520001894706, "lon": -6.056278351295159}, {"id": "1_2623", "name": "Arroyo Galapagar (V)", "lat": 37.553869985969875, "lon": -6.036247219737556}, {"id": "1_2624", "name": "Arroyo Galapagar", "lat": 37.55381135711434, "lon": -6.036475370239267}, {"id": "1_2625", "name": "Parque", "lat": 37.54654552653753, "lon": -6.056438684463501}, {"id": "1_2626", "name": "Av Pajanosas (Hnos Punta) (I)", "lat": 37.54603868528044, "lon": -6.059009601917107}, {"id": "1_2627", "name": "Av Pajanosas (Piruli) (I)", "lat": 37.54386665130615, "lon": -6.057471547171942}, {"id": "1_2629", "name": "Las Pajanosas Av Concepcion Soto", "lat": 37.57825051804728, "lon": -6.107179301953465}, {"id": "1_2630", "name": "Torre La Reina Urb La Reina", "lat": 37.51404580616143, "lon": -6.027529607781985}, {"id": "1_2631", "name": "Torre De La Reina Calle Mayor", "lat": 37.51228947271551, "lon": -6.02677809421265}, {"id": "1_2633", "name": "Gasolinera", "lat": 37.36336645595299, "lon": -6.270039298121645}, {"id": "1_2634", "name": "Frente A Gasolinera", "lat": 37.36351355188765, "lon": -6.269229270999148}, {"id": "1_2635", "name": "Av Virgen Del Rocio Sal Ctra Pilas", "lat": 37.354402715818146, "lon": -6.284309697544869}, {"id": "1_2636", "name": "Av Virgen Del Rocio Entr  Ctra Pilas", "lat": 37.35426413036843, "lon": -6.2852806572082605}, {"id": "1_2637", "name": "Av Virgen Del Rocio 52 Ceuta", "lat": 37.35481633855984, "lon": -6.281471920407113}, {"id": "1_2638", "name": "Av Virgen Del Rocio 55 Ceuta", "lat": 37.35473531985168, "lon": -6.281461191571053}, {"id": "1_2639", "name": "Av Virgen Del Rocio 11", "lat": 37.35553875, "lon": -6.2790238}, {"id": "1_2640", "name": "Av Virgen Del Rocio 10", "lat": 37.355613371699135, "lon": -6.2792437411392195}, {"id": "1_2641", "name": "Plaza De Espana", "lat": 37.355660633577365, "lon": -6.2763006214264}, {"id": "1_2642", "name": "Plaza Del Altozano", "lat": 37.35671385697796, "lon": -6.277282309925851}, {"id": "1_2643", "name": "Plaza De Villabelviestre", "lat": 37.35624481194457, "lon": -6.275538874066171}, {"id": "1_2644", "name": "Frente Surtidor", "lat": 37.137578016666666, "lon": -6.1597821816666665}, {"id": "1_2645", "name": "Surtidor", "lat": 37.13755022737013, "lon": -6.159612901797895}, {"id": "1_2646", "name": "Distribuidor De Bebidas Frente", "lat": 37.13243216328215, "lon": -6.163542984294434}, {"id": "1_2647", "name": "C Rafael Beca -Estanco- (V)", "lat": 37.134380341796295, "lon": -6.162403149360955}, {"id": "1_2648", "name": "Distribuidor De Bebidas", "lat": 37.13248855, "lon": -6.16332297}, {"id": "1_2649", "name": "Colegio Felix Hernandez", "lat": 37.12810807885242, "lon": -6.164873689413071}, {"id": "1_2650", "name": "Pza Del Azahar", "lat": 37.132602643720666, "lon": -6.1673312880855375}, {"id": "1_2651", "name": "Ntra Sra Del Mar", "lat": 37.129817134345124, "lon": -6.167100654631043}, {"id": "1_2652", "name": "Campo De Futbol Isla M.", "lat": 37.12783969979293, "lon": -6.167787648312166}, {"id": "1_2653", "name": "Poblado Alfonso Xiii (V)", "lat": 37.16703529170741, "lon": -6.135742733330782}, {"id": "1_2654", "name": "Poblado Alfonso Xiii", "lat": 37.166932429876425, "lon": -6.135665901639413}, {"id": "1_2655", "name": "Bda El Aral", "lat": 37.472623491315524, "lon": -6.005423038236992}, {"id": "1_2656", "name": "Bar Julian", "lat": 37.459108630527, "lon": -6.013256460428238}, {"id": "1_2657", "name": "Pena Sevillista", "lat": 37.46116978976845, "lon": -6.015935480109413}, {"id": "1_2658", "name": "Pza De Abastos", "lat": 37.46306972410254, "lon": -6.011175066232681}, {"id": "1_2659", "name": "Rtda Ctra Santiponce", "lat": 37.47068261003663, "lon": -6.009776294231415}, {"id": "1_2660", "name": "Bar Manolin", "lat": 37.46499327643135, "lon": -6.009908245365574}, {"id": "1_2661", "name": "Rtda De Entrada", "lat": 37.46723497991502, "lon": -6.007555425167084}, {"id": "1_2662", "name": "Bda Garcia Lorca", "lat": 37.45738850921008, "lon": -6.014688252917488}, {"id": "1_2663", "name": "Ambulatorio Ctra Santiponce", "lat": 37.466125866644695, "lon": -6.014275000307018}, {"id": "1_2664", "name": "Bar Roman", "lat": 37.46118663176474, "lon": -6.011072418244613}, {"id": "1_2665", "name": "Gravera Vuelta", "lat": 37.46853251667277, "lon": -5.938284695148468}, {"id": "1_2666", "name": "Gravera", "lat": 37.46857444741351, "lon": -5.938119739294052}, {"id": "1_2667", "name": "Venta La Merced (V)", "lat": 37.450306425566716, "lon": -5.955067916215535}, {"id": "1_2668", "name": "Venta La Merced", "lat": 37.4502851374169, "lon": -5.955255670846579}, {"id": "1_2669", "name": "Pgno Torrepavas (V)", "lat": 37.47196241427771, "lon": -5.972714899784846}, {"id": "1_2670", "name": "Pgno Torrepavas", "lat": 37.47170228616048, "lon": -5.9727296233177185}, {"id": "1_2671", "name": "Venta La Cazuela (V)", "lat": 37.497251847368595, "lon": -5.978622866397874}, {"id": "1_2672", "name": "Venta La Cazuela", "lat": 37.497158269515516, "lon": -5.978837449797904}, {"id": "1_2673", "name": "Asador El Carmen (V)", "lat": 37.46897794878754, "lon": -5.971176991027124}, {"id": "1_2674", "name": "Asador El Carmen", "lat": 37.46953560924352, "lon": -5.97147200973207}, {"id": "1_2675", "name": "Venta Azahar Vuelta", "lat": 37.451242580996286, "lon": -5.998787695556807}, {"id": "1_2676", "name": "Gasolinera Cepsa A-431", "lat": 37.44831009868823, "lon": -5.997125655412674}, {"id": "1_2677", "name": "Venta Azahar Ida", "lat": 37.45569063432842, "lon": -6.000898636605827}, {"id": "1_2678", "name": "Viveros Guadalquivir A-431", "lat": 37.44787889157962, "lon": -5.997102856636047}, {"id": "1_2679", "name": "Venta Bartolo", "lat": 37.42905711666667, "lon": -5.894404415}, {"id": "1_2680", "name": "Cocacola (I)", "lat": 37.43479845, "lon": -5.878559821666666}, {"id": "1_2681", "name": "Cocacola -Frente- (V)", "lat": 37.43216555, "lon": -5.873967256666667}, {"id": "1_2682", "name": "Club De Campo Aeropolis", "lat": 37.430676069225576, "lon": -5.863539778583311}, {"id": "1_2683", "name": "Club De Campo Aeropolis (V)", "lat": 37.4284452, "lon": -5.861676358333334}, {"id": "1_2684", "name": "Av 28 De Febrero Los Brejidos (V)", "lat": 37.48302103402198, "lon": -5.978717654943466}, {"id": "1_2685", "name": "Av 28 De Febrero Los Brejidos", "lat": 37.48274433848615, "lon": -5.9788598120212555}, {"id": "1_2686", "name": "C Francisco Garcia Fuente (V)", "lat": 37.488360421839296, "lon": -5.977689434588328}, {"id": "1_2687", "name": "C Francisco Garcia Fuente", "lat": 37.48739414256267, "lon": -5.97816150641078}, {"id": "1_2688", "name": "Av De La Constitucion (V)", "lat": 37.49082064569987, "lon": -5.9778825955319475}, {"id": "1_2689", "name": "Av De La Constitucion (I)", "lat": 37.490658904141355, "lon": -5.978075721867012}, {"id": "1_2690", "name": "Rtda Llegada A San Jose Ctra Brenes", "lat": 37.47938985571181, "lon": -5.922379195690155}, {"id": "1_2691", "name": "Rtda Salida San Jose Ctra Brenes", "lat": 37.47894286376891, "lon": -5.92287540435791}, {"id": "1_2692", "name": "Gasolinera Llegada A San Jose", "lat": 37.47334885278815, "lon": -5.931133925914764}, {"id": "1_2693", "name": "Gasolinera Salida S Jose Ctra Brenes", "lat": 37.47337226847086, "lon": -5.931522846221924}, {"id": "1_2694", "name": "Finca Las Cortillas (V)", "lat": 37.476720635565016, "lon": -5.977608561515808}, {"id": "1_2695", "name": "Finca Las Cortillas", "lat": 37.476077777777, "lon": -5.977338888888}, {"id": "1_2696", "name": "Horno De Curro (V)", "lat": 37.45791531466897, "lon": -5.974736863333338}, {"id": "1_2697", "name": "Horno De Curro (I)", "lat": 37.458345967176456, "lon": -5.97474452573913}, {"id": "1_2698", "name": "Venta El Gordillo (V)", "lat": 37.45477888161085, "lon": -5.950772155474051}, {"id": "1_2699", "name": "Venta El Gordillo", "lat": 37.4548801419211, "lon": -5.95089441889348}, {"id": "1_2700", "name": "Pgno Majaravique (V)", "lat": 37.453065479960074, "lon": -5.975760671465031}, {"id": "1_2701", "name": "Pgno Majaravique (I)", "lat": 37.453093669082676, "lon": -5.976042151451111}, {"id": "1_2702", "name": "Colegio Maestro P Gonzalez", "lat": 37.48594117366367, "lon": -5.935833156108856}, {"id": "1_2703", "name": "Campo De Futbol San Jose -Frente- (V)", "lat": 37.49111569662853, "lon": -5.938579008387867}, {"id": "1_2704", "name": "Carrefour Express -Frente- (V)", "lat": 37.49046767828112, "lon": -5.945438532142399}, {"id": "1_2705", "name": "Pgno El Canamo", "lat": 37.48973830637453, "lon": -5.934585705079642}, {"id": "1_2706", "name": "Bomberos", "lat": 37.48290253162408, "lon": -5.949666272450116}, {"id": "1_2707", "name": "Bda Sta Cruz San Jose", "lat": 37.47925150134852, "lon": -5.950164198875427}, {"id": "1_2708", "name": "Renfe Cercanias San Jose", "lat": 37.48015242189119, "lon": -5.940299034118652}, {"id": "1_2709", "name": "Centro De Salud El Mirador (I)", "lat": 37.491595959192274, "lon": -5.941924452781677}, {"id": "1_2712", "name": "C Juan De Austria Supermercados Mas (I)", "lat": 37.48345203848845, "lon": -5.950703322887421}, {"id": "1_2714", "name": "Torrepalma (I)", "lat": 37.43112696765492, "lon": -5.82137256860733}, {"id": "1_2715", "name": "Gasolinera Travesia San Jose (U)", "lat": 37.478927148443525, "lon": -5.952879023058587}, {"id": "1_2716", "name": "Torrepalma", "lat": 37.43091823709537, "lon": -5.818529427051544}, {"id": "1_2717", "name": "Carrefour Express", "lat": 37.49057812520267, "lon": -5.945545788323135}, {"id": "1_2718", "name": "Centro De Salud El Mirador", "lat": 37.49149593471425, "lon": -5.941924452781677}, {"id": "1_2719", "name": "Campo De Futbol San Jose (I)", "lat": 37.49120118095224, "lon": -5.93848317861557}, {"id": "1_2720", "name": "Tarazona (I)", "lat": 37.43212801429006, "lon": -5.8412423729896545}, {"id": "1_2721", "name": "Tarazona", "lat": 37.43125689148484, "lon": -5.8398959040641785}, {"id": "1_2722", "name": "Av De Cadiz (Frente)", "lat": 37.15790531534847, "lon": -5.923910737037659}, {"id": "1_2723", "name": "Av De Cadiz", "lat": 37.157736440764864, "lon": -5.9241581708192825}, {"id": "1_2724", "name": "Av Sevilla Frente Apeadero", "lat": 37.16563385519382, "lon": -5.925343952223909}, {"id": "1_2725", "name": "Apeadero Los Palacios", "lat": 37.16583133333334, "lon": -5.925117631666667}, {"id": "1_2727", "name": "Urb Las Encinas", "lat": 37.359109598191885, "lon": -5.791563867337031}, {"id": "1_2728", "name": "El Torreon", "lat": 37.36313738392608, "lon": -5.780721008777618}, {"id": "1_2729", "name": "Los Claveles", "lat": 37.36520736593828, "lon": -5.7735031843185425}, {"id": "1_2730", "name": "Los Cheles (V)", "lat": 37.372322893243044, "lon": -5.755801945924759}, {"id": "1_2731", "name": "Los Cheles", "lat": 37.37302737473222, "lon": -5.75483500957489}, {"id": "1_2732", "name": "Paseo (V)", "lat": 37.37481466041332, "lon": -5.750509947538376}, {"id": "1_2733", "name": "Venta El Sol (V)", "lat": 37.376826660833856, "lon": -5.743373277198784}, {"id": "1_2734", "name": "Venta El Sol", "lat": 37.37741611343352, "lon": -5.744929611682892}, {"id": "1_2735", "name": "Paseo (I)", "lat": 37.37537418529779, "lon": -5.7498453246946575}, {"id": "1_2736", "name": "Domingo De Santos", "lat": 37.37961358353508, "lon": -5.737108290195465}, {"id": "1_2737", "name": "Instituto (I)", "lat": 37.3793620819755, "lon": -5.739024728536606}, {"id": "1_2738", "name": "Instituto Mairena Alcor (V)", "lat": 37.378417877915496, "lon": -5.73978915810585}, {"id": "1_2739", "name": "Hotel Mairena (V)", "lat": 37.370233922853, "lon": -5.759779661893845}, {"id": "1_2740", "name": "Hotel Mairena", "lat": 37.36982251672627, "lon": -5.761009454727173}, {"id": "1_2742", "name": "Pgno Pisa C Horizonte Concesionario", "lat": 37.35435082903648, "lon": -6.056378283439838}, {"id": "1_2743", "name": "Pgno Pisa Rtda Horizonte", "lat": 37.35622928095495, "lon": -6.058958648449702}, {"id": "1_2746", "name": "Calahoyas (V)", "lat": 37.33811614514807, "lon": -6.069892644882202}, {"id": "1_2747", "name": "Calahoyas", "lat": 37.33765338159272, "lon": -6.069837659597397}, {"id": "1_2748", "name": "Urb La Estacada Del Marques (V)", "lat": 37.33719168147148, "lon": -6.064485311508179}, {"id": "1_2749", "name": "Urb La Estacada Del Marques", "lat": 37.3374806442353, "lon": -6.064446419477463}, {"id": "1_2750", "name": "Urb Puebla Del Marques (Frente)", "lat": 37.33375923062573, "lon": -6.07031375169754}, {"id": "1_2752", "name": "Urb Puebla Del Marques", "lat": 37.333651530810634, "lon": -6.07013002038002}, {"id": "1_2753", "name": "Urb La Senora", "lat": 37.323665, "lon": -6.08446309}, {"id": "1_2754", "name": "C C Altos De Simon Verde (V)", "lat": 37.348484282510405, "lon": -6.039526044136805}, {"id": "1_2755", "name": "C C Altos De Simon Verde", "lat": 37.34882437560816, "lon": -6.038981555706782}, {"id": "1_2756", "name": "C Ciaurriz (V)", "lat": 37.34521227365611, "lon": -6.036460279232783}, {"id": "1_2757", "name": "C Ciaurriz", "lat": 37.34519521491072, "lon": -6.036326168782038}, {"id": "1_2758", "name": "Eurosuite (V)", "lat": 37.33747573518448, "lon": -6.037340043789667}, {"id": "1_2759", "name": "Eurosuite", "lat": 37.337586628355844, "lon": -6.037216662174982}, {"id": "1_2760", "name": "Pgno Pisa C Horizonte", "lat": 37.35417035603329, "lon": -6.0564291500272605}, {"id": "1_2761", "name": "Instituto Mairena Aljarafe (V)", "lat": 37.33939189485247, "lon": -6.062554290572147}, {"id": "1_2762", "name": "Instituto Mairena Aljarafe (I)", "lat": 37.339082181538046, "lon": -6.0624682903289795}, {"id": "1_2763", "name": "Av De San Juan Deposito Cruzcampo (I)", "lat": 37.356075011679934, "lon": -6.040916878915412}, {"id": "1_2764", "name": "Urb Alero De Sevilla", "lat": 37.35248463333333, "lon": -6.036829413333333}, {"id": "1_2765", "name": "Av De San Juan Deposito Cruzcampo", "lat": 37.35611479501368, "lon": -6.0410065948963165}, {"id": "1_2766", "name": "Supermercado Mas", "lat": 37.353547, "lon": -6.036431931666667}, {"id": "1_2767", "name": "Rtda Cavaleri (I)", "lat": 37.353182126011774, "lon": -6.0450513660907745}, {"id": "1_2768", "name": "Rtda Cavaleri", "lat": 37.35368423777593, "lon": -6.04467049241066}, {"id": "1_2769", "name": "Las Brisas Rtda Cavaleri (I)", "lat": 37.35119450934065, "lon": -6.047514262246094}, {"id": "1_2770", "name": "Las Brisas Rtda Cavaleri", "lat": 37.351283433333336, "lon": -6.047048215}, {"id": "1_2771", "name": "C Itaca", "lat": 37.3554697, "lon": -6.04518102}, {"id": "1_2772", "name": "Metro Ciudad Expo (V)", "lat": 37.3498498402122, "lon": -6.051107121030179}, {"id": "1_2774", "name": "Av De San Juan Rtda. Vitalia (V)", "lat": 37.348763184443, "lon": -6.056641191244125}, {"id": "1_2775", "name": "Av De San Juan Residencia Tercera Edad", "lat": 37.3484270841975, "lon": -6.057422661221314}, {"id": "1_2778", "name": "Calle Nueva  Mercadona", "lat": 37.346017531875454, "lon": -6.061966855264289}, {"id": "1_2779", "name": "Av De San Juan Primera Parada Frente G Civil", "lat": 37.34675885017473, "lon": -6.060735583305359}, {"id": "1_2780", "name": "C Nueva Confiteria", "lat": 37.34466562881845, "lon": -6.064584691262824}, {"id": "1_2781", "name": "C Zurraque", "lat": 37.34344091968983, "lon": -6.06319785118103}, {"id": "1_2782", "name": "F Garcia Lorca El Mudo", "lat": 37.34255456432578, "lon": -6.067594129777533}, {"id": "1_2783", "name": "Polideportivo Mairena Aljarafe (Frente)", "lat": 37.348903571543595, "lon": -6.066059906221015}, {"id": "1_2784", "name": "Polideportivo Mairena Aljarafe", "lat": 37.34901444784015, "lon": -6.066185970044715}, {"id": "1_2785", "name": "Urb Alero De Sevilla (Frente)", "lat": 37.35071906666667, "lon": -6.0378919233333335}, {"id": "1_2786", "name": "Los Alcores (V)", "lat": 37.347595432104384, "lon": -6.042831976152045}, {"id": "1_2787", "name": "Los Alcores", "lat": 37.34742271761433, "lon": -6.042885620332343}, {"id": "1_2789", "name": "Metro Ciudad Expo", "lat": 37.34902225140353, "lon": -6.051575839519501}, {"id": "1_2790", "name": "Av De Los Olmos -Bomberos- (V)", "lat": 37.347686394492676, "lon": -6.057107895612717}, {"id": "1_2791", "name": "Av De Los Olmos Primera Parada (I)", "lat": 37.34590829520025, "lon": -6.056173849588971}, {"id": "1_2792", "name": "Av De Los Olmos Primera Parada (V)", "lat": 37.34350988166986, "lon": -6.054864365792853}, {"id": "1_2793", "name": "Av De Los Olmos Segunda Parada (I)", "lat": 37.34350988167065, "lon": -6.055116493440253}, {"id": "1_2794", "name": "Av De Los Olmos Segunda Parada (V)", "lat": 37.34575312372922, "lon": -6.055921156144721}, {"id": "1_2795", "name": "La Prusiana", "lat": 37.34257303065015, "lon": -6.066110730171204}, {"id": "1_2797", "name": "Guardia Civil Olivares (I)", "lat": 37.4213703217636, "lon": -6.152177453041077}, {"id": "1_2799", "name": "Av Andalucia", "lat": 37.4175273815438, "lon": -6.153896749019623}, {"id": "1_2800", "name": "Hnos Machado", "lat": 37.415691051124085, "lon": -6.159462332725525}, {"id": "1_2801", "name": "Pio X", "lat": 37.42024664429038, "lon": -6.151670515537262}, {"id": "1_2802", "name": "C Laelia (I)", "lat": 37.42102310189905, "lon": -6.146904230117798}, {"id": "1_2803", "name": "C Laelia (V)", "lat": 37.42107453333333, "lon": -6.147006256666667}, {"id": "1_2804", "name": "Guardia Civil Olivares (V)", "lat": 37.421293416666664, "lon": -6.15151634}, {"id": "1_2805", "name": "C Cartuja", "lat": 37.417594485572984, "lon": -6.158712655305862}, {"id": "1_2806", "name": "Av Virgen Del Rocio Recinto Ferial", "lat": 37.41426051426809, "lon": -6.162560284137726}, {"id": "1_2807", "name": "C El Palomar (Colegio)", "lat": 37.417384633651274, "lon": -6.151520311832428}, {"id": "1_2808", "name": "Av Virgen Del Rocio", "lat": 37.41449225883419, "lon": -6.162347117114872}, {"id": "1_2809", "name": "C El Palomar (Frente Colegio)", "lat": 37.417984326839026, "lon": -6.151893138885498}, {"id": "1_2810", "name": "Cementerio Olivares (I)", "lat": 37.42207555064414, "lon": -6.154318275985715}, {"id": "1_2811", "name": "Cementerio Olivares (V)", "lat": 37.422268186525436, "lon": -6.154384911060333}, {"id": "1_2812", "name": "Pgno Las Canadas", "lat": 37.42347423333333, "lon": -6.156784518333334}, {"id": "1_2813", "name": "Camino De Albaida", "lat": 37.42051931070529, "lon": -6.158410906791687}, {"id": "1_2814", "name": "Cajasol Frente (V)", "lat": 37.32429598639179, "lon": -6.05945885181427}, {"id": "1_2815", "name": "Cajasol", "lat": 37.32387153078728, "lon": -6.060014069080353}, {"id": "1_2816", "name": "Pena Flamenca (V)", "lat": 37.32366676742735, "lon": -6.062586307525635}, {"id": "1_2817", "name": "Pena Flamenca", "lat": 37.323607044675605, "lon": -6.062378436326981}, {"id": "1_2819", "name": "Urb La Laguna Av De Las Rosas", "lat": 37.31575522250721, "lon": -6.060264855623245}, {"id": "1_2820", "name": "Urb La Laguna Av Pensamientos", "lat": 37.312523386682294, "lon": -6.060086488723755}, {"id": "1_2821", "name": "Urb La Laguna Av Pensamientos (Frente)", "lat": 37.31264284975343, "lon": -6.059910804033279}, {"id": "1_2826", "name": "Urb Las Lomas La Romana", "lat": 37.32238824541121, "lon": -6.065824604615774}, {"id": "1_2827", "name": "Av Del Aljarafe Rtda (V)", "lat": 37.319384739133504, "lon": -6.067463904619217}, {"id": "1_2828", "name": "Av Del Aljarafe Rtda (I)", "lat": 37.31907544246172, "lon": -6.067294925451279}, {"id": "1_2829", "name": "Urb Las Lomas La Romana (Frente)", "lat": 37.3223370536128, "lon": -6.0656744009109405}, {"id": "1_2830", "name": "Av Del Aljarafe Ambulatorio (Frente)", "lat": 37.31839605185555, "lon": -6.062594354152679}, {"id": "1_2831", "name": "Av Del Aljarafe Ambulatorio", "lat": 37.318671221789195, "lon": -6.0627298057079315}, {"id": "1_2832", "name": "Urb Rio Grande (Frente)", "lat": 37.3061851719087, "lon": -6.058600544929504}, {"id": "1_2833", "name": "Urb La Mampela", "lat": 37.32889872284473, "lon": -6.059461534023285}, {"id": "1_2834", "name": "Urb La Mampela (Frente)", "lat": 37.32867371146842, "lon": -6.058892905712128}, {"id": "1_2837", "name": "Urb Razo De Ugena", "lat": 37.317701328031255, "lon": -6.076351577598273}, {"id": "1_2838", "name": "Urb La Estrella (V)", "lat": 37.31046126686865, "lon": -6.060243255265003}, {"id": "1_2839", "name": "Urb La Estrella", "lat": 37.310071657083256, "lon": -6.0599761533580505}, {"id": "1_2840", "name": "Urb Vistas Del Aljarafe", "lat": 37.31479715, "lon": -6.085564241666667}, {"id": "1_2841", "name": "Urb Rio Grande", "lat": 37.306061431668255, "lon": -6.058691740036011}, {"id": "1_2842", "name": "Urb La Laguna Av De Las Rosas (Frente)", "lat": 37.31585974821097, "lon": -6.0601334273815155}, {"id": "1_2845", "name": "Barrio Bareta", "lat": 37.30913835, "lon": -6.3046727}, {"id": "1_2846", "name": "C Suecia Frente 23 (I)", "lat": 37.30660972739265, "lon": -6.311837285757065}, {"id": "1_2847", "name": "C Sta M La Mayor Esq Blanca Paloma (V)", "lat": 37.30121369280334, "lon": -6.305507429360968}, {"id": "1_2848", "name": "C Sta M La Mayor 27 (I)", "lat": 37.300959102911044, "lon": -6.306069195270538}, {"id": "1_2849", "name": "C Parroco Vicente Moya La Fabrica(V)", "lat": 37.30026603737167, "lon": -6.30257264078369}, {"id": "1_2850", "name": "C Parroco Vicente Moya La Fabrica(I)", "lat": 37.3002831063184, "lon": -6.302712115652464}, {"id": "1_2851", "name": "Av. Alcalde Jesús Calderón Moreno 61 (I)", "lat": 37.29906706, "lon": -6.2976622}, {"id": "1_2852", "name": "Av. Alcalde Jesús Calderón Moreno 64 (V)", "lat": 37.299035638877484, "lon": -6.297793239355087}, {"id": "1_2853", "name": "Av Aljarafe Pinichi (I)", "lat": 37.30238143333333, "lon": -6.295098216666666}, {"id": "1_2854", "name": "Av Aljarafe Pinichi (V)", "lat": 37.30246891585104, "lon": -6.29521621719666}, {"id": "1_2855", "name": "C Suecia (V)", "lat": 37.306508388989904, "lon": -6.311811804771423}, {"id": "1_2856", "name": "Bar El Conde (Frente)", "lat": 37.265712879241455, "lon": -6.065013579129026}, {"id": "1_2857", "name": "Rtda Bar Donana (V)", "lat": 37.27088748458869, "lon": -6.063905954360962}, {"id": "1_2858", "name": "Bar El Conde", "lat": 37.26576837877941, "lon": -6.064831188916013}, {"id": "1_2859", "name": "Rtda Bar Donana", "lat": 37.27164256019499, "lon": -6.063436440228269}, {"id": "1_2860", "name": "Bar El Frenazo (Frente)", "lat": 37.26405854728953, "lon": -6.06690721869354}, {"id": "1_2861", "name": "Bar El Frenazo", "lat": 37.26394592757137, "lon": -6.066812127828598}, {"id": "1_2863", "name": "Bda Los Principes (V)", "lat": 37.26234013819865, "lon": -6.0701956069457985}, {"id": "1_2864", "name": "Bda Los Principes", "lat": 37.262004990490304, "lon": -6.070463827847288}, {"id": "1_2865", "name": "Venta El Cruce -Frente- (V)", "lat": 37.231260931598584, "lon": -6.144675768640129}, {"id": "1_2866", "name": "Venta El Cruce", "lat": 37.23165387630492, "lon": -6.144493378427116}, {"id": "1_2867", "name": "La Fuemblanca (V)", "lat": 37.41483145407062, "lon": -6.099461317062378}, {"id": "1_2868", "name": "La Fuemblanca", "lat": 37.41444905270657, "lon": -6.099073737859726}, {"id": "1_2869", "name": "Cantarranas (V)", "lat": 37.41757744328553, "lon": -6.1065758764743805}, {"id": "1_2870", "name": "Cantarranas", "lat": 37.417054456204404, "lon": -6.1059777438640594}, {"id": "1_2871", "name": "Pio Xii El Cerro (V)", "lat": 37.42188262788732, "lon": -6.1107467114925385}, {"id": "1_2872", "name": "Pio Xii El Cerro", "lat": 37.42161742203632, "lon": -6.110280007123947}, {"id": "1_2873", "name": "Urb Ntra Sra De La Oliva (Frente)", "lat": 37.42057576104994, "lon": -6.114972531795502}, {"id": "1_2874", "name": "Urb Ntra Sra De La Oliva", "lat": 37.42074830712263, "lon": -6.115471422672272}, {"id": "1_2875", "name": "Hormigonera (V)", "lat": 37.42322226790342, "lon": -6.129609937753908}, {"id": "1_2876", "name": "Hormigonera", "lat": 37.4229839, "lon": -6.129319478333334}, {"id": "1_2877", "name": "Las Moreras (V)", "lat": 37.41894613964362, "lon": -6.107884794473648}, {"id": "1_2878", "name": "Las Moreras", "lat": 37.41866281622492, "lon": -6.107882112264633}, {"id": "1_2879", "name": "Pgno Malpesa (I)", "lat": 37.42105079433996, "lon": -6.119690537452698}, {"id": "1_2880", "name": "Pgno Malpesa", "lat": 37.42108913770279, "lon": -6.119219809770584}, {"id": "1_2881", "name": "Cortijo", "lat": 37.42281161988246, "lon": -6.134923296010544}, {"id": "1_2882", "name": "Pgno Los Llanos (V)", "lat": 37.464391983333336, "lon": -6.054044363333333}, {"id": "1_2883", "name": "Pgno Los Llanos (I)", "lat": 37.46284073333333, "lon": -6.054577751666667}, {"id": "1_2884", "name": "Fabrica El Ladrillo", "lat": 37.484025000378814, "lon": -6.067895768887324}, {"id": "1_2885", "name": "Fabrica De Ladrillo", "lat": 37.483863242209814, "lon": -6.067820667034907}, {"id": "1_2887", "name": "Hipercor Frente", "lat": 37.37282597383973, "lon": -6.028023991468035}, {"id": "1_2888", "name": "Hipercor", "lat": 37.372830509497135, "lon": -6.028306686032711}, {"id": "1_2890", "name": "Bda Guadalajara (I)", "lat": 37.3697159344602, "lon": -6.026679575443268}, {"id": "1_2891", "name": "Bda Guadalajara", "lat": 37.36909121739619, "lon": -6.026786613016353}, {"id": "1_2892", "name": "Cerro De Los Sagrados Corazones", "lat": 37.36575416421643, "lon": -6.0292960703372955}, {"id": "1_2893", "name": "C/Ramón Y Cajal Bar Geroma", "lat": 37.36513302997969, "lon": -6.025027539232277}, {"id": "1_2894", "name": "Plaza Andalucia", "lat": 37.36338147849252, "lon": -6.025170832872391}, {"id": "1_2895", "name": "Rtda Hdad Sacram S Juan Bautista. Parque", "lat": 37.36154382128368, "lon": -6.02737694978714}, {"id": "1_2896", "name": "Ctra A Tomares Frente Bda Besteiro", "lat": 37.36214607468828, "lon": -6.027992516756058}, {"id": "1_2897", "name": "Rtda Hdad Sacramental S Juan Bautista", "lat": 37.36170691915017, "lon": -6.027800688734012}, {"id": "1_2898", "name": "C 28 De Febrero Ambulatorio (V)", "lat": 37.359687628283844, "lon": -6.033035145737915}, {"id": "1_2899", "name": "C 28 De Febrero Ambulatorio", "lat": 37.35947763271266, "lon": -6.033442841508179}, {"id": "1_2900", "name": "Av De Mairena Los Faroles (Frente)", "lat": 37.35847092942797, "lon": -6.035909223136708}, {"id": "1_2901", "name": "Av De Mairena Los Faroles", "lat": 37.35861163907289, "lon": -6.035960185107991}, {"id": "1_2902", "name": "Av De Palomares Centro (I)", "lat": 37.357978457443565, "lon": -6.034640424668118}, {"id": "1_2905", "name": "Policia Local San Juan A. (I)", "lat": 37.36322918817763, "lon": -6.024902551181787}, {"id": "1_2906", "name": "Cementerio San Juan A. (I)", "lat": 37.35451845, "lon": -6.035412815}, {"id": "1_2909", "name": "Cornisa Azul Guardia Civil", "lat": 37.364921014499245, "lon": -6.034470214680474}, {"id": "1_2912", "name": "C Clara Campoamor Montelar", "lat": 37.36072793791936, "lon": -6.04085188280334}, {"id": "1_2913", "name": "C Clavel", "lat": 37.357562075386774, "lon": -6.042021411017813}, {"id": "1_2914", "name": "Arrocerias Herbas", "lat": 37.35868121460779, "lon": -6.025892266480923}, {"id": "1_2915", "name": "Carrefour San Juan Dentro", "lat": 37.36694393333333, "lon": -6.033318285}, {"id": "1_2916", "name": "Arrocerias Herbas (Frente)", "lat": 37.358651871681644, "lon": -6.026046574115753}, {"id": "1_2918", "name": "Metro San Juan Bajo (U)", "lat": 37.36680937769872, "lon": -6.025361269712448}, {"id": "1_2919", "name": "Metro San Juan Alto", "lat": 37.36153187380505, "lon": -6.038939952850342}, {"id": "1_2920", "name": "Metro San Juan Alto (Frente)", "lat": 37.36145090747751, "lon": -6.038392116463466}, {"id": "1_2921", "name": "Av De Palomares Centro", "lat": 37.35829825, "lon": -6.0350817}, {"id": "1_2924", "name": "Venta Pazo (Gasolinera)", "lat": 37.38669471131535, "lon": -6.197941303253174}, {"id": "1_2925", "name": "Venta Pazo", "lat": 37.38663974222944, "lon": -6.1981796181858035}, {"id": "1_2926", "name": "C/Cristobal Colon (Mercadona)(V)", "lat": 37.38850937576655, "lon": -6.202574819326401}, {"id": "1_2927", "name": "C/Cristobal Colon (Mercadona)(I)", "lat": 37.38837085331112, "lon": -6.202541291713715}, {"id": "1_2928", "name": "Av Hermano Cirilo 37(I)", "lat": 37.37834503333333, "lon": -6.1980563533333335}, {"id": "1_2929", "name": "Av Hermano Cirilo 37(V)", "lat": 37.37875819830142, "lon": -6.198257287805897}, {"id": "1_2930", "name": "Av Hermano Cirilo 1(I)", "lat": 37.38208272990514, "lon": -6.199101358652115}, {"id": "1_2931", "name": "Av Hermano Cirilo 1(V)", "lat": 37.381908, "lon": -6.199263}, {"id": "1_2934", "name": "C Maestro Francisco Lindes", "lat": 37.39000540197655, "lon": -6.207381337881088}, {"id": "1_2935", "name": "Venta La Alegria Sanlucar M. (V)", "lat": 37.39019137207976, "lon": -6.204330591154488}, {"id": "1_2936", "name": "Venta La Alegria (Frente)", "lat": 37.38981253987502, "lon": -6.204245835542679}, {"id": "1_2937", "name": "Hotel Solucar (I)", "lat": 37.384631383333335, "lon": -6.1899483166666665}, {"id": "1_2938", "name": "Hotel Solucar", "lat": 37.38473235995604, "lon": -6.190086806826331}, {"id": "1_2939", "name": "Urb Encinares (V)", "lat": 37.45164936340864, "lon": -6.224375842816157}, {"id": "1_2940", "name": "Urb Encinares (I)", "lat": 37.45141087956452, "lon": -6.224483131176752}, {"id": "1_2941", "name": "Urb Ranchos Del Guadiamar (V)", "lat": 37.432065604856476, "lon": -6.223174213177485}, {"id": "1_2942", "name": "Urb Ranchos Del Guadiamar (I)", "lat": 37.432116721814374, "lon": -6.223420976406855}, {"id": "1_2943", "name": "Colegio Josefa Frias (V)", "lat": 37.434188601990535, "lon": -6.038857730210465}, {"id": "1_2944", "name": "Colegio Josefa Frias", "lat": 37.43395858176977, "lon": -6.039099129021805}, {"id": "1_2946", "name": "Av De Extremadura", "lat": 37.4378564, "lon": -6.039993093333333}, {"id": "1_2947", "name": "Agro Garcia Av De Extremadura", "lat": 37.4378292, "lon": -6.040146028333333}, {"id": "1_2948", "name": "Confecciones Donoso", "lat": 37.43339953720301, "lon": -6.046490371227264}, {"id": "1_2949", "name": "Italica", "lat": 37.4448554, "lon": -6.045023508333333}, {"id": "1_2950", "name": "Av Blas Infante Los Viveros", "lat": 37.37346647331184, "lon": -6.010736525058746}, {"id": "1_2952", "name": "Chapina C Gonzalo Jimenez De Quesada (V)", "lat": 37.39054285248437, "lon": -6.008411351712044}, {"id": "1_2953", "name": "Av De La Borbolla", "lat": 37.37448360833959, "lon": -5.985366055830249}, {"id": "1_2955", "name": "Av Ntra Sra De Las Mercedes (I)", "lat": 37.37231068333333, "lon": -5.9776603066666665}, {"id": "1_2956", "name": "Rtda Inicio Av De La Paz (V)", "lat": 37.37252282776983, "lon": -5.973547983043045}, {"id": "1_2957", "name": "Rtda Inicio Av De La Paz", "lat": 37.371715392546555, "lon": -5.971966534852982}, {"id": "1_2958", "name": "Av De La Palmera Hospital", "lat": 37.36053844690702, "lon": -5.982436537742615}, {"id": "1_2959", "name": "M Siurot", "lat": 37.36783727668608, "lon": -5.985365946540151}, {"id": "1_2961", "name": "Hospital Virgen Del Rocio Marques Luca De Tena", "lat": 37.3603158489253, "lon": -5.981882661581039}, {"id": "1_2962", "name": "Est Benito Villamarin (Frente)", "lat": 37.35713115, "lon": -5.980261865}, {"id": "1_2963", "name": "Est Benito Villamarin", "lat": 37.35686287157468, "lon": -5.980800741988723}, {"id": "1_2964", "name": "Av De La Paz Alcampo (V)", "lat": 37.3688861737929, "lon": -5.968725227248643}, {"id": "1_2965", "name": "Av De La Paz Alcampo (I)", "lat": 37.36887925841189, "lon": -5.96851721405983}, {"id": "1_2966", "name": "Av De La Paz Bomberos (I)", "lat": 37.36362450635504, "lon": -5.962176471948624}, {"id": "1_2967", "name": "Av De La Paz Bomberos (V)", "lat": 37.36365264289995, "lon": -5.962422195942696}, {"id": "1_2968", "name": "Av Kansas City El Mirador(V)", "lat": 37.38894092485243, "lon": -5.97357451915741}, {"id": "1_2969", "name": "Av Kansas City El Mirador(I)", "lat": 37.38888913562216, "lon": -5.973864499600228}, {"id": "1_2970", "name": "Av Andalucia Frente Cruzcampo", "lat": 37.38741294315702, "lon": -5.963243190532848}, {"id": "1_2971", "name": "Centro Comercial Los Arcos Los Pajaritos", "lat": 37.38719556444062, "lon": -5.957776847029342}, {"id": "1_2972", "name": "Av Cruz Del Campo", "lat": 37.38662777736635, "lon": -5.965308337739072}, {"id": "1_2973", "name": "Av San Francisco Javier(V)", "lat": 37.38038939659158, "lon": -5.9740050137043}, {"id": "1_2974", "name": "Av San Francisco Javier(I)", "lat": 37.380394724950236, "lon": -5.974287986755371}, {"id": "1_2975", "name": "Avd Ciudad Jardin Escuela De Magisterio", "lat": 37.37929387801733, "lon": -5.966219902038574}, {"id": "1_2976", "name": "Ciudad Jardin (Esq. Cardenal Rodrigo De Castro)", "lat": 37.379079704335325, "lon": -5.96594152495627}, {"id": "1_2979", "name": "Av Andalucia C C Los Arcos", "lat": 37.38758093659604, "lon": -5.960229149091598}, {"id": "1_2980", "name": "Av Andalucia Fte Aceites Guillen", "lat": 37.386828294719834, "lon": -5.9518383587478425}, {"id": "1_2981", "name": "Av Andalucia Sta Aurelia", "lat": 37.386530148136075, "lon": -5.946479361602658}, {"id": "1_2982", "name": "Av Andalucia Frente Hotel Hispalis", "lat": 37.386640366605675, "lon": -5.9425950050354}, {"id": "1_2983", "name": "Av Andalucia Hotel Hispalis", "lat": 37.38633390085824, "lon": -5.942597989113625}, {"id": "1_2984", "name": "Av Kansas City Indio(I)", "lat": 37.39365839004244, "lon": -5.970830921204384}, {"id": "1_2985", "name": "Av Kansas City Indio(V)", "lat": 37.39400999866693, "lon": -5.96968293574601}, {"id": "1_2986", "name": "Pabellon De San Pablo(V)", "lat": 37.39735339462685, "lon": -5.965493325264748}, {"id": "1_2987", "name": "Pabellon De San Pablo(I)", "lat": 37.397575003875055, "lon": -5.965914432080086}, {"id": "1_2988", "name": "Av Kansas City Renault(V)", "lat": 37.40332024008021, "lon": -5.957960896468232}, {"id": "1_2989", "name": "Av Kansas City Renault(I)", "lat": 37.40264200577803, "lon": -5.959351066620644}, {"id": "1_2990", "name": "Santa Clara Ed Vilaser(I)", "lat": 37.40674990385006, "lon": -5.954016152890023}, {"id": "1_2991", "name": "Santa Clara (Frente Peugeot)(V)", "lat": 37.40655601953406, "lon": -5.953715745480355}, {"id": "1_2992", "name": "Av Doctor Fedriani N 19", "lat": 37.40851343276292, "lon": -5.9852233067622835}, {"id": "1_2993", "name": "Carrefour Macarena (I)", "lat": 37.417575338218754, "lon": -5.973752136747187}, {"id": "1_2994", "name": "Carrefour Macarena", "lat": 37.416851045543154, "lon": -5.973768294310155}, {"id": "1_2995", "name": "C Camino De Los Toros (V)", "lat": 37.42223559171321, "lon": -5.972467068703469}, {"id": "1_2996", "name": "C Camino De Los Toros", "lat": 37.42204387763687, "lon": -5.972459022076424}, {"id": "1_2998", "name": "Av Doctor Fedriani Frente N 41", "lat": 37.4111714293679, "lon": -5.983912303919757}, {"id": "1_2999", "name": "Parque De Los Principes (Frente)", "lat": 37.37559840611532, "lon": -6.006598178417977}, {"id": "1_3000", "name": "Parque De Los Principes (V)", "lat": 37.3755174098436, "lon": -6.006370190651711}, {"id": "1_3001", "name": "Poligono (Junto A Renault) Torreblanca", "lat": 37.38294738799397, "lon": -5.895077291996773}, {"id": "1_3002", "name": "Av Ntra Sra De Las Mercedes (V)", "lat": 37.37214761594531, "lon": -5.97763039927463}, {"id": "1_3004", "name": "C Inca Garcilaso Torretriana", "lat": 37.39164203289021, "lon": -6.011071595306394}, {"id": "1_3005", "name": "Av De La Palmera Frente Pabellon Guatemala", "lat": 37.374218903251375, "lon": -5.990728586912155}, {"id": "1_3006", "name": "Av Andalucia Tussam", "lat": 37.38691380884945, "lon": -5.947696200181776}, {"id": "1_3007", "name": "Barqueta", "lat": 37.40423959927493, "lon": -5.995431840419769}, {"id": "1_3008", "name": "Av Jimenez Becerril", "lat": 37.40686133730965, "lon": -5.993438959121704}, {"id": "1_3009", "name": "Chapina (I)", "lat": 37.3898630428806, "lon": -6.008910242588814}, {"id": "1_3010", "name": "Carrefour San Pablo(I)", "lat": 37.41052586412058, "lon": -5.9402574598789215}, {"id": "1_3011", "name": "Av Blas Infante (Frente Ed Urbis)", "lat": 37.374638148955356, "lon": -6.008079797029495}, {"id": "1_3012", "name": "Av De Jerez Fremap", "lat": 37.34344944926207, "lon": -5.973968803882599}, {"id": "1_3013", "name": "Hotel Macarena Salida", "lat": 37.40388061010465, "lon": -5.987131054263276}, {"id": "1_3016", "name": "Hospital Macarena (U)", "lat": 37.4045806918005, "lon": -5.987113581403937}, {"id": "1_3017", "name": "Av Doctor Fedriani N 41", "lat": 37.4113844750409, "lon": -5.984110902224159}, {"id": "1_3019", "name": "Hotel Macarena Entrada", "lat": 37.404204474619895, "lon": -5.987324233027741}, {"id": "1_3020", "name": "Av Republica Argentina", "lat": 37.37903483178172, "lon": -5.999586489955534}, {"id": "1_3021", "name": "Av De Portugal Bar Citroen", "lat": 37.37887974730596, "lon": -5.9881526270225605}, {"id": "1_3022", "name": "Delicias", "lat": 37.37938446138573, "lon": -5.994181931018829}, {"id": "1_3023", "name": "Plaza De Armas", "lat": 37.39206718404569, "lon": -6.004173159599304}, {"id": "1_3024", "name": "Iveco Cocheras De Casal Av Andalucia", "lat": 37.38735792324538, "lon": -5.955086354286965}, {"id": "1_3025", "name": "Los Bermejales (V)", "lat": 37.35194320605179, "lon": -5.977639578214458}, {"id": "1_3026", "name": "Los Bermejales", "lat": 37.35129731133527, "lon": -5.976742208003998}, {"id": "1_3027", "name": "Grupo Planeta", "lat": 37.34587342979363, "lon": -5.975457684288944}, {"id": "1_3028", "name": "Hospital Vigil De Quinones", "lat": 37.34685559994088, "lon": -5.975633594322504}, {"id": "1_3030", "name": "Opel Av De Jerez", "lat": 37.33448220162475, "lon": -5.969604849815369}, {"id": "1_3031", "name": "Ambulatorio De Bellavista", "lat": 37.32644169008896, "lon": -5.96594363451004}, {"id": "1_3032", "name": "Ambulatorio De Bellavista (Frente)", "lat": 37.32622104553978, "lon": -5.965958589106141}, {"id": "1_3033", "name": "Once A-92", "lat": 37.38631749428306, "lon": -5.932442843914032}, {"id": "1_3034", "name": "Pgno El Pino", "lat": 37.38581731848448, "lon": -5.930738596536251}, {"id": "1_3035", "name": "Cuartel A-92", "lat": 37.38618175096102, "lon": -5.927219538308712}, {"id": "1_3036", "name": "Persan", "lat": 37.385690926204745, "lon": -5.926234871149063}, {"id": "1_3037", "name": "Carrefour San Pablo(V)", "lat": 37.40970029596145, "lon": -5.9407442808151245}, {"id": "1_3038", "name": "Venta Sevilla", "lat": 37.38570051657194, "lon": -5.920965671539307}, {"id": "1_3039", "name": "Torreblanca Michelin", "lat": 37.38555198495733, "lon": -5.915911345101925}, {"id": "1_3040", "name": "Torreblanca Canal", "lat": 37.38461318688869, "lon": -5.911276487924191}, {"id": "1_3041", "name": "Torreblanca Merkamuebles", "lat": 37.38333304924055, "lon": -5.908992720978417}, {"id": "1_3042", "name": "Torreblanca Natuka (V)", "lat": 37.38229864247056, "lon": -5.90606227359924}, {"id": "1_3043", "name": "Torreblanca Frente Natuka (I)", "lat": 37.382551199823084, "lon": -5.90531125507507}, {"id": "1_3044", "name": "C Cataluna San Jeronimo (V)", "lat": 37.424551719753794, "lon": -5.983903319221952}, {"id": "1_3045", "name": "C Cataluna San Jeronimo", "lat": 37.4244421, "lon": -5.9838707116666665}, {"id": "1_3046", "name": "San Jeronimo Iglesia (I)", "lat": 37.42516679757638, "lon": -5.982324177011456}, {"id": "1_3047", "name": "San Jeronimo Iglesia", "lat": 37.425558869931585, "lon": -5.9818952190769235}, {"id": "1_3048", "name": "San Jeronimo Ambulatorio (V)", "lat": 37.43073237272458, "lon": -5.980260224848418}, {"id": "1_3049", "name": "San Jeronimo Ambulatorio (I)", "lat": 37.43094756234394, "lon": -5.980484355277075}, {"id": "1_3050", "name": "Gasolinera Torneo Parque Emp (I)", "lat": 37.42805987741615, "lon": -5.970340411284003}, {"id": "1_3051", "name": "Gasolinera Torneo Parque Emp", "lat": 37.42816211669042, "lon": -5.9705604366372205}, {"id": "1_3052", "name": "Bda Tercia Fogon De Pepin (I)", "lat": 37.43971210499206, "lon": -5.992677211761475}, {"id": "1_3053", "name": "Cortijo El Higueron (V)", "lat": 37.43936926718795, "lon": -5.963339884799802}, {"id": "1_3054", "name": "Cortijo El Higueron", "lat": 37.43934369874027, "lon": -5.963570567789972}, {"id": "1_3055", "name": "Parque Alcosa(V)", "lat": 37.415989949852104, "lon": -5.92453732929382}, {"id": "1_3056", "name": "Hospital De Valme Frente", "lat": 37.318675487981785, "lon": -5.968749225139618}, {"id": "1_3057", "name": "Bda Los Naranjitos Bellavista", "lat": 37.316029433333334, "lon": -5.968955561666666}, {"id": "1_3058", "name": "Parque Alcosa(I)", "lat": 37.41471321875987, "lon": -5.929689556360245}, {"id": "1_3059", "name": "Torreblanca Campo De Futbol", "lat": 37.38126709137124, "lon": -5.90168222627792}, {"id": "1_3060", "name": "Cementerio San Lazaro (V)", "lat": 37.41577844866715, "lon": -5.983049598495078}, {"id": "1_3061", "name": "C Torrelaguna (Esq C Torremegía)", "lat": 37.38515451569853, "lon": -5.902532486535641}, {"id": "1_3062", "name": "Plaza De Las Acacias", "lat": 37.383331645775016, "lon": -5.899667432157038}, {"id": "1_3063", "name": "C Sicomoro", "lat": 37.38260341621507, "lon": -5.895966438867184}, {"id": "1_3064", "name": "Av De Jerez Fremap (Frente)", "lat": 37.34465804081824, "lon": -5.974336686070232}, {"id": "1_3065", "name": "Hospital De Valme", "lat": 37.31888986384769, "lon": -5.969076454639435}, {"id": "1_3066", "name": "Av Bellavista Pena Sevillista", "lat": 37.324181658922164, "lon": -5.968396817066236}, {"id": "1_3067", "name": "Torreblanca Junto Puente Peatonal", "lat": 37.38038995967528, "lon": -5.9006568055249105}, {"id": "1_3068", "name": "Antigua Fabrica De Uralita", "lat": 37.33440482958416, "lon": -5.969208218644663}, {"id": "1_3069", "name": "Parque Comercial Ciudad Imagen (Lipasam)", "lat": 37.43175744810419, "lon": -5.967609858197965}, {"id": "1_3070", "name": "Parque Comercial Ciudad Imagen (Bricodepot)", "lat": 37.431693560912585, "lon": -5.9679317684490805}, {"id": "1_3071", "name": "Cementerio San Lazaro (I)", "lat": 37.415094572535644, "lon": -5.983418539265913}, {"id": "1_3072", "name": "Bda Tercia Fogon De Pepin", "lat": 37.439914422076406, "lon": -5.992610156536102}, {"id": "1_3073", "name": "Carrefour Montequinto", "lat": 37.35711110018823, "lon": -5.9520085140243495}, {"id": "1_3074", "name": "Leroy Merlin (Tomares)", "lat": 37.37382329958295, "lon": -6.030732172532818}, {"id": "1_3075", "name": "Ies  Nestor Almendros (I)", "lat": 37.37475503807118, "lon": -6.040154086944025}, {"id": "1_3076", "name": "Ies  Nestor Almendros(V)", "lat": 37.37472946002264, "lon": -6.0399073237146546}, {"id": "1_3077", "name": "Urb  Villares Altos", "lat": 37.37924165931997, "lon": -6.039591729640961}, {"id": "1_3078", "name": "Villa Marilo", "lat": 37.377706787059964, "lon": -6.042526187721569}, {"id": "1_3079", "name": "C  Pablo Picasso", "lat": 37.38115824570779, "lon": -6.0485491881203135}, {"id": "1_3080", "name": "Glorieta El Salado (Frente A Parque)", "lat": 37.38052950887256, "lon": -6.045569074975276}, {"id": "1_3081", "name": "Glorieta De Doña Elvira (El Torero)", "lat": 37.37825278333333, "lon": -6.045381201666666}, {"id": "1_3082", "name": "Rtda  De Las Almenas (I)", "lat": 37.37647920305209, "lon": -6.052340481243179}, {"id": "1_3083", "name": "Rtda  De Las Almenas(V)", "lat": 37.37613816953251, "lon": -6.053056631050155}, {"id": "1_3084", "name": "Glorieta El Salado (Parque)", "lat": 37.38064708409618, "lon": -6.045208022379855}, {"id": "1_3085", "name": "Canal Sur (V)", "lat": 37.371289899691796, "lon": -6.0352286384918274}, {"id": "1_3086", "name": "Canal Sur", "lat": 37.37149477265484, "lon": -6.035030633211136}, {"id": "1_3087", "name": "Carrefour San Juan (V)", "lat": 37.36855789301422, "lon": -6.036895356800436}, {"id": "1_3088", "name": "Carrefour San Juan", "lat": 37.368485415868086, "lon": -6.036439381267904}, {"id": "1_3089", "name": "Hacienda El Carmen(I)", "lat": 37.371663975155826, "lon": -6.039447322446738}, {"id": "1_3090", "name": "Hacienda El Carmen(V)", "lat": 37.37139326254894, "lon": -6.03975577648345}, {"id": "1_3091", "name": "Aljamar(I)", "lat": 37.36998543358516, "lon": -6.043889796419126}, {"id": "1_3092", "name": "Aljamar(V)", "lat": 37.36998969686189, "lon": -6.044225072545988}, {"id": "1_3093", "name": "Glorieta Del Agua(I)", "lat": 37.37327049056478, "lon": -6.047990304576509}, {"id": "1_3094", "name": "Glorieta Del Agua(V)", "lat": 37.37257134027348, "lon": -6.04796348248636}, {"id": "1_3095", "name": "Glorieta De La Luz(I)", "lat": 37.36917718483269, "lon": -6.040909214195193}, {"id": "1_3096", "name": "Glorieta De La Luz(V)", "lat": 37.36881693306573, "lon": -6.041472478088321}, {"id": "1_3097", "name": "Glorieta De Doña Elvira (El Torero (V))", "lat": 37.3780779189157, "lon": -6.045607924461365}, {"id": "1_3098", "name": "Glorieta Torrente Ballester", "lat": 37.36933773333333, "lon": -6.051023631666666}, {"id": "1_3099", "name": "Av  Reina Sofia Parque (I)", "lat": 37.38082195, "lon": -6.035006653333333}, {"id": "1_3100", "name": "C  Pastora Imperio", "lat": 37.3712745205859, "lon": -6.0536514338607805}, {"id": "1_3101", "name": "Av  Reina Sofia  Parque (V)", "lat": 37.380966880383966, "lon": -6.034987877870228}, {"id": "1_3102", "name": "Av  Reina Sofia Polideportivo (V)", "lat": 37.378133703979174, "lon": -6.033837955867769}, {"id": "1_3103", "name": "Av  Reina Sofia Polideportivo (I)", "lat": 37.37802926493253, "lon": -6.033982795154573}, {"id": "1_3104", "name": "Final C  Pablo Picasso", "lat": 37.379696004312535, "lon": -6.051478594868769}, {"id": "1_3105", "name": "C  Granada", "lat": 37.36634145989378, "lon": -6.1616714634336285}, {"id": "1_3106", "name": "Primero  De Mayo ( Cementerio )", "lat": 37.37280569291952, "lon": -6.155260652303696}, {"id": "1_3107", "name": "C Granada", "lat": 37.366385681646626, "lon": -6.161450928944398}, {"id": "1_3108", "name": "Primero De Mayo  Cementerio", "lat": 37.372836600519236, "lon": -6.155330389738083}, {"id": "1_3109", "name": "Ayuntamiento", "lat": 37.36999944295365, "lon": -6.157694756984711}, {"id": "1_3110", "name": "C  Cordoba (V)", "lat": 37.36503788963965, "lon": -6.162947863340378}, {"id": "1_3111", "name": "C  Cordoba", "lat": 37.36500484704627, "lon": -6.1627936363220215}, {"id": "1_3112", "name": "C  Rio Quema  Colegio R  Escobar", "lat": 37.36902314603995, "lon": -6.161817312240601}, {"id": "1_3113", "name": "Pza  Inmaculada  C  Traspalacio", "lat": 37.371400982359404, "lon": -6.15927591919899}, {"id": "1_3114", "name": "Av  De Los Poetas  35", "lat": 37.366601533792554, "lon": -6.153321415185928}, {"id": "1_3115", "name": "Av  De Los Poetas  17", "lat": 37.36859148232782, "lon": -6.154482811689377}, {"id": "1_3116", "name": "Av De Los Poetas 17", "lat": 37.36857784217089, "lon": -6.154655476721189}, {"id": "1_3117", "name": "Av De Los Poetas 35", "lat": 37.366806080136676, "lon": -6.153351665606697}, {"id": "1_3118", "name": "Urb El Loreto", "lat": 37.379521084802775, "lon": -6.152842303427121}, {"id": "1_3119", "name": "Urb El Loreto (Frente)", "lat": 37.380007035179396, "lon": -6.152820845755002}, {"id": "1_3120", "name": "Urb  San Bartolome (Frente)", "lat": 37.38469011156186, "lon": -6.175090092863975}, {"id": "1_3121", "name": "Urb  San Bartolome", "lat": 37.38457382763178, "lon": -6.174771230530998}, {"id": "1_3122", "name": "Venta Bovito", "lat": 37.41461335, "lon": -6.073567893333333}, {"id": "1_3123", "name": "Ambulatorio Valencina", "lat": 37.41702070171742, "lon": -6.07757223038386}, {"id": "1_3124", "name": "Urb  Sitio De Valencina", "lat": 37.41557539424204, "lon": -6.08037279595347}, {"id": "1_3126", "name": "C  Alamillo", "lat": 37.416549573154306, "lon": -6.0717809200286865}, {"id": "1_3127", "name": "Polideportivo Valencina", "lat": 37.4212495475035, "lon": -6.07337027497274}, {"id": "1_3128", "name": "Camino De Los Nazarenos Repetidor", "lat": 37.41297481859164, "lon": -6.069365590810776}, {"id": "1_3129", "name": "Urb Las Pilas", "lat": 37.401177770388855, "lon": -6.079287081956863}, {"id": "1_3130", "name": "Urb Torrijos", "lat": 37.414184885721546, "lon": -6.084316223859787}, {"id": "1_3131", "name": "Hotel Vereda Real", "lat": 37.404682816666664, "lon": -6.07701516}, {"id": "1_3132", "name": "Urb La Gloria", "lat": 37.396873669836026, "lon": -6.080557528076169}, {"id": "1_3133", "name": "Urb La Ponderosa", "lat": 37.40964493333333, "lon": -6.074997286666667}, {"id": "1_3136", "name": "Hotel Los Girasoles (V)", "lat": 37.42299882534972, "lon": -6.037330627441406}, {"id": "1_3137", "name": "Polígono Industrial Navisur (Frente)", "lat": 37.427687663867005, "lon": -6.037926368978128}, {"id": "1_3138", "name": "Polígono Industrial Navisur", "lat": 37.427672753875925, "lon": -6.038267009523019}, {"id": "1_3139", "name": "Poligono Los Girasoles (V)", "lat": 37.421448638150295, "lon": -6.03711634185563}, {"id": "1_3140", "name": "Poligono Los Girasoles", "lat": 37.42172556052372, "lon": -6.037336282994851}, {"id": "1_3141", "name": "Hotel Los Girasoles", "lat": 37.423244855186034, "lon": -6.03753849864006}, {"id": "1_3142", "name": "C  Pascual Marquez  Dia", "lat": 37.25021034671419, "lon": -6.307068318128586}, {"id": "1_3143", "name": "Plaza Del Ayuntamiento", "lat": 37.24645524467081, "lon": -6.306551071094521}, {"id": "1_3144", "name": "Bda  Juan Xxiii", "lat": 37.2429302, "lon": -6.305897566666666}, {"id": "1_3145", "name": "C  Hnas  De La Cruz  72  Los Pitufos", "lat": 37.2403004, "lon": -6.305730516666666}, {"id": "1_3146", "name": "Av  Andalucia  Cuatro Caminos (I)", "lat": 37.39711857681343, "lon": -6.148085743188858}, {"id": "1_3147", "name": "C  Isaac Peral  Bodegas Gongora", "lat": 37.39524125860965, "lon": -6.144313216209412}, {"id": "1_3148", "name": "Paseo De Las Palmeras Deposito De Agua", "lat": 37.39333725619521, "lon": -6.141176372766495}, {"id": "1_3149", "name": "Paseo De Las Palmeras Frente Deposito De Agua", "lat": 37.39335856594705, "lon": -6.141822785139084}, {"id": "1_3150", "name": "Paseo De Las Palmeras Frente Gasolinera", "lat": 37.39301015074436, "lon": -6.138958185911179}, {"id": "1_3151", "name": "Paseo De Las Palmeras  Gasolinera", "lat": 37.39283647528314, "lon": -6.138667166233063}, {"id": "1_3152", "name": "Av  Andalucia  Cuatro Caminos (V)", "lat": 37.39764596478352, "lon": -6.147938221693039}, {"id": "1_3153", "name": "C Isaac Peral Bodegas Gongora", "lat": 37.39511020683169, "lon": -6.14448755979538}, {"id": "1_3154", "name": "Ctra Villanueva  Esq C/ Camino Del Loreto", "lat": 37.39022383635424, "lon": -6.1382728815078735}, {"id": "1_3155", "name": "Urb  Tres Pinos", "lat": 37.386541534789714, "lon": -6.138568468231211}, {"id": "1_3156", "name": "Hacienda San Ignacio", "lat": 37.38477981828828, "lon": -6.059650061238104}, {"id": "1_3158", "name": "C Saturno", "lat": 37.341156013192794, "lon": -5.835157824790953}, {"id": "1_3159", "name": "Av Princesa Sofia", "lat": 37.34575984902474, "lon": -5.8366330397491435}, {"id": "1_3160", "name": "Rues (Frente Gasolinera)", "lat": 37.41470681522544, "lon": -6.036237670219419}, {"id": "1_3161", "name": "C Camino Del Agua (V)", "lat": 37.388422727525764, "lon": -6.045155348193562}, {"id": "1_3162", "name": "C Camino Del Agua", "lat": 37.38771979434211, "lon": -6.04584127664566}, {"id": "1_3163", "name": "Centro De Discapacitados Rebeca", "lat": 37.38849870776479, "lon": -6.0490693581466655}, {"id": "1_3164", "name": "Frente Centro De Discapacitados Rebeca", "lat": 37.38831543182003, "lon": -6.0488923323516826}, {"id": "1_3165", "name": "Piscina Municipal", "lat": 37.389534421544944, "lon": -6.051756931579588}, {"id": "1_3166", "name": "Frente Piscina Municipal", "lat": 37.389436391635535, "lon": -6.051794482505796}, {"id": "1_3167", "name": "Parque De Los Olivos", "lat": 37.390386850135414, "lon": -6.055039955413816}, {"id": "1_3168", "name": "Frente A Parque De Los Olivos", "lat": 37.39028882134075, "lon": -6.055125786102293}, {"id": "1_3169", "name": "Hospital Nisa", "lat": 37.39205332003252, "lon": -6.061246587074278}, {"id": "1_3170", "name": "Frente Hospital Nisa", "lat": 37.39151630308819, "lon": -6.061048103607176}, {"id": "1_3171", "name": "Av Placido Fernandez Viagas (I)", "lat": 37.387074557188676, "lon": -6.060774475336075}, {"id": "1_3172", "name": "Av Placido Fernandez Viagas (V)", "lat": 37.387045274587294, "lon": -6.060618950164793}, {"id": "1_3173", "name": "Plaza Del Arenal Bar Belindo", "lat": 37.286378795991645, "lon": -5.924132062232969}, {"id": "1_3175", "name": "C Historiador Juan Manzano", "lat": 37.34826635796177, "lon": -5.934995008743284}, {"id": "1_3176", "name": "Residencial Palmera Real (I)", "lat": 37.345861146946625, "lon": -5.932589024305344}, {"id": "1_3177", "name": "C Liorna Esquina C Eboli", "lat": 37.33633225059282, "lon": -5.9253524243831635}, {"id": "1_3178", "name": "Metro Europa", "lat": 37.337229001448144, "lon": -5.935066044330597}, {"id": "1_3179", "name": "Av Montequinto Colegio G Fuertes", "lat": 37.34123705899919, "lon": -5.934563130140305}, {"id": "1_3180", "name": "Av Montequinto Aavv", "lat": 37.342830948916415, "lon": -5.934585481163498}, {"id": "1_3181", "name": "Av Montequinto Frente Aavv", "lat": 37.34339507322246, "lon": -5.933975726366043}, {"id": "1_3182", "name": "Urb Hato Verde", "lat": 37.57024709213239, "lon": -6.101989342010496}, {"id": "1_3183", "name": "C Rafael Beca (I)", "lat": 37.13438855917701, "lon": -6.162199569976805}, {"id": "1_3185", "name": "Variante Mairena Esquina Av De San Juan", "lat": 37.34925255599232, "lon": -6.056967079639435}, {"id": "1_3186", "name": "Av De Los Olmos -Frente Bomberos- (I)", "lat": 37.34777913585054, "lon": -6.056906772888182}, {"id": "1_3188", "name": "Cornisa Azul Puente", "lat": 37.36443031751088, "lon": -6.037873817718504}, {"id": "1_3189", "name": "Cl A Machado ( La Caixa )", "lat": 37.36181030568721, "lon": -6.026970595121384}, {"id": "1_3190", "name": "Bda Del Rosario", "lat": 37.433732843370954, "lon": -6.0429002774124125},